$ADVER,3080,2.3
$GPRMC,193858.520,A,3748.1899,N,12217.6737,W,2.25,131.20,170714,,,A*76
$GPGGA,193859.520,3748.1894,N,12217.6730,W,1,04,2.4,7.8,M,-25.1,M,,0000*69
$GPGSA,A,3,28,17,08,26,,,,,,,,,4.4,2.4,3.7*30
$GPRMC,193859.520,A,3748.1894,N,12217.6730,W,1.94,137.60,170714,,,A*76
$GPVTG,137.60,T,,M,1.94,N,3.6,K,A*07
$GPGGA,193900.520,3748.1890,N,12217.6726,W,1,04,2.4,7.9,M,-25.1,M,,0000*66
$GPGSA,A,3,28,17,08,26,,,,,,,,,4.4,2.4,3.7*30
$GPRMC,193900.520,A,3748.1890,N,12217.6726,W,1.76,141.77,170714,,,A*73
$GPVTG,141.77,T,,M,1.76,N,3.3,K,A*09
$GPGGA,193901.000,3748.1889,N,12217.6725,W,1,04,2.4,7.9,M,-25.1,M,,0000*6B
$GPGSA,A,3,28,17,08,26,,,,,,,,,4.4,2.4,3.7*30
$GPRMC,193901.000,A,3748.1889,N,12217.6725,W,1.52,155.39,170714,,,A*77
$GPVTG,155.39,T,,M,1.52,N,2.8,K,A*0A
$GPGGA,193902.000,3748.1885,N,12217.6723,W,1,04,2.4,8.0,M,-25.1,M,,0000*64
$GPGSA,A,3,28,17,08,26,,,,,,,,,4.4,2.4,3.7*30
$GPGSV,3,1,12,17,82,149,35,28,50,048,37,26,44,233,32,09,43,129,36*7F
$GPGSV,3,2,12,08,22,124,35,22,73,358,,01,21,059,33,24,11,312,*70
$GPGSV,3,3,12,04,10,167,35,11,09,043,33,07,06,130,30,48,44,197,31*76
$GPRMC,193902.000,A,3748.1885,N,12217.6723,W,1.49,154.28,170714,,,A*75
$GPVTG,154.28,T,,M,1.49,N,2.8,K,A*01
$GPGGA,193903.000,3748.1881,N,12217.6723,W,1,04,2.4,8.1,M,-25.1,M,,0000*60
$GPGSA,A,3,28,17,08,26,,,,,,,,,4.4,2.4,3.7*30
$GPRMC,193903.000,A,3748.1881,N,12217.6723,W,1.22,167.03,170714,,,A*74
$GPVTG,167.03,T,,M,1.22,N,2.3,K,A*0E
$GPGGA,193904.000,3748.1878,N,12217.6722,W,1,05,2.2,8.0,M,-25.1,M,,0000*66
$GPGSA,A,3,04,28,17,08,26,,,,,,,,4.3,2.2,3.7*35
$GPRMC,193904.000,A,3748.1878,N,12217.6722,W,0.62,157.50,170714,,,A*74
$GPVTG,157.50,T,,M,0.62,N,1.1,K,A*0F
$GPGGA,193905.000,3748.1876,N,12217.6716,W,1,05,2.2,8.8,M,-25.1,M,,0000*66
$GPGSA,A,3,04,28,17,08,26,,,,,,,,4.3,2.2,3.7*35
$GPRMC,193905.000,A,3748.1876,N,12217.6716,W,0.37,233.53,170714,,,A*7E
$GPVTG,233.53,T,,M,0.37,N,0.7,K,A*0A
$GPGGA,193906.000,3748.1875,N,12217.6718,W,1,05,2.2,8.6,M,-25.1,M,,0000*66
$GPGSA,A,3,04,28,17,08,26,,,,,,,,4.3,2.2,3.7*35
$GPRMC,193906.000,A,3748.1875,N,12217.6718,W,0.49,223.26,170714,,,A*7A
$GPVTG,223.26,T,,M,0.49,N,0.9,K,A*0E
$GPGGA,193907.000,3748.1873,N,12217.6719,W,1,05,2.2,8.6,M,-25.1,M,,0000*60
$GPGSA,A,3,04,28,17,08,26,,,,,,,,4.3,2.2,3.7*35
$GPGSV,3,1,12,17,82,149,35,22,73,358,,28,50,048,33,26,44,233,32*70
$GPGSV,3,2,12,09,43,129,37,04,25,141,36,08,22,124,36,01,21,059,32*7C
$GPGSV,3,3,12,24,11,312,,11,09,043,31,07,06,130,28,48,44,197,31*78
$GPRMC,193907.000,A,3748.1873,N,12217.6719,W,0.69,188.83,170714,,,A*73
$GPVTG,188.83,T,,M,0.69,N,1.3,K,A*0A
$GPGGA,193908.000,3748.1871,N,12217.6720,W,1,05,2.2,8.6,M,-25.1,M,,0000*67
$GPGSA,A,3,04,28,17,08,26,,,,,,,,4.3,2.2,3.7*35
$GPRMC,193908.000,A,3748.1871,N,12217.6720,W,0.91,202.43,170714,,,A*7E
$GPVTG,202.43,T,,M,0.91,N,1.7,K,A*04
$GPGGA,193909.000,3748.1868,N,12217.6721,W,1,05,2.2,8.6,M,-25.1,M,,0000*6F
$GPGSA,A,3,04,28,17,08,26,,,,,,,,4.3,2.2,3.7*35
$GPRMC,193909.000,A,3748.1868,N,12217.6721,W,1.02,198.12,170714,,,A*79
$GPVTG,198.12,T,,M,1.02,N,1.9,K,A*05
$GPGGA,193910.000,3748.1865,N,12217.6722,W,1,05,2.2,8.6,M,-25.1,M,,0000*69
$GPGSA,A,3,04,28,17,08,26,,,,,,,,4.3,2.2,3.7*35
$GPRMC,193910.000,A,3748.1865,N,12217.6722,W,1.02,194.06,170714,,,A*76
$GPVTG,194.06,T,,M,1.02,N,1.9,K,A*0C
$GPGGA,193911.000,3748.1862,N,12217.6723,W,2,05,2.2,8.5,M,-25.1,M,1.8,0000*49
$GPGSA,A,3,04,28,17,08,26,,,,,,,,4.3,2.2,3.7*35
$GPRMC,193911.000,A,3748.1862,N,12217.6723,W,1.09,173.70,170714,,,D*77
$GPVTG,173.70,T,,M,1.09,N,2.0,K,D*00
$GPGGA,193912.000,3748.1859,N,12217.6722,W,2,05,2.2,8.4,M,-25.1,M,1.8,0000*42
$GPGSA,A,3,04,28,17,08,26,,,,,,,,4.3,2.2,3.7*35
$GPGSV,3,1,12,17,82,148,35,22,73,359,,28,50,048,33,26,44,233,33*71
$GPGSV,3,2,12,09,43,129,38,04,25,141,36,08,22,124,36,01,21,059,32*73
$GPGSV,3,3,12,24,11,312,,11,09,043,32,07,06,131,28,48,44,197,36*7D
$GPVTG,167.18,T,,M,0.99,N,1.8,K,D*08
$GPGGA,193913.000,3748.1856,N,12217.6722,W,2,05,2.2,8.4,M,-25.1,M,1.8,0000*4C
$GPGSA,A,3,04,28,17,08,26,,,,,,,,4.3,2.2,3.7*35
$GPRMC,193913.000,A,3748.1856,N,12217.6722,W,0.83,152.85,170714,,,D*79
$GPVTG,152.85,T,,M,0.83,N,1.5,K,D*0C
$GPGGA,193914.000,3748.1854,N,12217.6722,W,2,05,2.2,8.3,M,-25.1,M,2.8,0000*4D
$GPGSA,A,3,04,28,17,08,26,,,,,,,,4.3,2.2,3.7*35
$GPRMC,193914.000,A,3748.1854,N,12217.6722,W,0.84,185.74,170714,,,D*7F
$GPVTG,185.74,T,,M,0.84,N,1.5,K,D*0F
$GPGGA,193915.000,3748.1851,N,12217.6722,W,2,05,2.2,8.3,M,-25.1,M,3.8,0000*48
$GPGSA,A,3,04,28,17,08,26,,,,,,,,4.3,2.2,3.7*35
$GPRMC,193915.000,A,3748.1851,N,12217.6722,W,0.82,164.97,170714,,,D*7F
$GPVTG,164.97,T,,M,0.82,N,1.5,K,D*0B
$GPGGA,193916.000,3748.1849,N,12217.6722,W,2,05,2.2,8.3,M,-25.1,M,1.8,0000*40
$GPGSA,A,3,04,28,17,08,26,,,,,,,,4.3,2.2,3.7*35
$GPRMC,193916.000,A,3748.1849,N,12217.6722,W,0.70,191.46,170714,,,D*7E
$GPVTG,191.46,T,,M,0.70,N,1.3,K,D*06
$GPGGA,193917.000,3748.1846,N,12217.6723,W,2,05,2.2,9.3,M,-25.1,M,2.8,0000*4D
$GPGSA,A,3,04,28,17,08,26,,,,,,,,4.3,2.2,3.7*35
$GPGSV,3,1,12,17,82,148,22,22,73,359,,28,50,048,22,26,44,233,22*77
$GPGSV,3,2,12,09,43,129,22,04,25,141,23,08,22,124,23,01,21,059,10*78
$GPGSV,3,3,12,24,11,312,,11,09,043,21,07,06,131,14,48,44,197,24*73
$GPRMC,193917.000,A,3748.1846,N,12217.6723,W,0.42,155.91,170714,,,D*72
$GPVTG,155.91,T,,M,0.42,N,0.8,K,D*0F
$GPGGA,193918.000,3748.1852,N,12217.6727,W,2,05,2.2,7.1,M,-25.1,M,3.8,0000*4E
$GPGSA,A,3,04,28,17,08,26,,,,,,,,4.3,2.2,3.7*35
$GPRMC,193918.000,A,3748.1852,N,12217.6727,W,0.21,74.75,170714,,,D*41
$GPVTG,74.75,T,,M,0.21,N,0.4,K,D*3E
$GPGGA,193919.000,3748.1845,N,12217.6728,W,2,05,2.2,9.3,M,-25.1,M,4.8,0000*4D
$GPGSA,A,3,04,28,17,08,26,,,,,,,,4.3,2.2,3.7*35
$GPRMC,193919.000,A,3748.1845,N,12217.6728,W,0.56,278.94,170714,,,D*78
$GPVTG,278.94,T,,M,0.56,N,1.0,K,D*0A
$GPGGA,193920.000,3748.1839,N,12217.6730,W,2,05,2.2,11.0,M,-25.1,M,5.8,0000*7E
$GPGSA,A,3,04,28,17,08,26,,,,,,,,4.3,2.2,3.7*35
$GPRMC,193920.000,A,3748.1839,N,12217.6730,W,0.95,241.25,170714,,,D*7F
$GPVTG,241.25,T,,M,0.95,N,1.8,K,D*0D
$GPGGA,193921.000,3748.1829,N,12217.6732,W,2,05,2.2,12.7,M,-25.1,M,6.8,0000*7B
$GPGSA,A,3,04,28,17,08,26,,,,,,,,4.3,2.2,3.7*35
$GPRMC,193921.000,A,3748.1829,N,12217.6732,W,1.01,224.77,170714,,,D*75
$GPVTG,224.77,T,,M,1.01,N,1.9,K,D*04
$GPGGA,193922.000,3748.1826,N,12217.6732,W,2,05,2.2,13.4,M,-25.1,M,1.8,0000*72
$GPGSA,A,3,04,28,17,08,26,,,,,,,,4.3,2.2,3.7*35
$GPGSV,3,1,12,17,82,148,35,22,73,359,,28,50,048,20,26,44,233,38*78
$GPGSV,3,2,12,09,43,129,38,04,25,141,35,08,22,124,35,01,21,059,*72
$GPGSV,3,3,12,24,11,312,,11,09,043,20,07,06,131,14,48,44,197,39*7E
$GPRMC,193922.000,A,3748.1826,N,12217.6732,W,1.03,190.44,170714,,,D*77
$GPVTG,190.44,T,,M,1.03,N,1.9,K,D*0A
$GPGGA,193923.000,3748.1815,N,12217.6733,W,2,05,2.2,15.1,M,-25.1,M,1.8,0000*71
$GPGSA,A,3,04,28,17,08,26,,,,,,,,4.3,2.2,3.7*35
$GPRMC,193923.000,A,3748.1815,N,12217.6733,W,1.16,188.83,170714,,,D*71
$GPVTG,188.83,T,,M,1.16,N,2.2,K,D*04
$GPGGA,193924.000,3748.1815,N,12217.6733,W,2,05,2.2,15.0,M,-25.1,M,1.8,0000*77
$GPGSA,A,3,04,28,17,08,26,,,,,,,,4.3,2.2,3.7*35
$GPRMC,193924.000,A,3748.1815,N,12217.6733,W,0.57,180.68,170714,,,D*7F
$GPVTG,180.68,T,,M,0.57,N,1.1,K,D*0D
$GPGGA,193925.000,3748.1815,N,12217.6733,W,2,05,2.2,15.1,M,-25.1,M,1.8,0000*77
$GPGSA,A,3,04,28,17,08,26,,,,,,,,4.3,2.2,3.7*35
$GPRMC,193925.000,A,3748.1815,N,12217.6733,W,0.25,169.55,170714,,,D*72
$GPVTG,169.55,T,,M,0.25,N,0.5,K,D*04
$GPGGA,193926.000,3748.1817,N,12217.6734,W,2,05,2.2,14.8,M,-25.1,M,1.8,0000*79
$GPGSA,A,3,04,28,17,08,26,,,,,,,,4.3,2.2,3.7*35
$GPRMC,193926.000,A,3748.1817,N,12217.6734,W,0.18,174.25,170714,,,D*71
$GPVTG,174.25,T,,M,0.18,N,0.3,K,D*07
$GPGGA,193927.000,3748.1821,N,12217.6734,W,2,05,2.2,14.4,M,-25.1,M,1.8,0000*71
$GPGSA,A,3,04,28,17,08,26,,,,,,,,4.3,2.2,3.7*35
$GPGSV,3,1,12,17,82,148,36,22,73,359,,28,50,048,27,26,44,233,39*7D
$GPGSV,3,2,12,09,43,129,36,04,25,141,34,08,22,124,25,01,21,059,*7C
$GPGSV,3,3,12,24,11,312,,11,09,043,20,07,06,131,13,48,44,197,37*77
$GPVTG,177.82,T,,M,0.05,N,0.1,K,D*07
$GPGGA,193928.000,3748.1829,N,12217.6734,W,2,05,2.2,13.3,M,-25.1,M,2.8,0000*75
$GPGSA,A,3,04,28,17,08,26,,,,,,,,4.3,2.2,3.7*35
$GPRMC,193928.000,A,3748.1829,N,12217.6734,W,0.15,294.63,170714,,,D*70
$GPVTG,294.63,T,,M,0.15,N,0.3,K,D*05
$GPGGA,193929.000,3748.1826,N,12217.6734,W,2,05,2.2,13.8,M,-25.1,M,1.8,0000*73
$GPGSA,A,3,04,28,17,08,26,,,,,,,,4.3,2.2,3.7*35
$GPRMC,193929.000,A,3748.1826,N,12217.6734,W,0.52,226.78,170714,,,D*7E
$GPVTG,226.78,T,,M,0.52,N,1.0,K,D*07
$GPGGA,193930.000,3748.1824,N,12217.6738,W,2,05,2.2,13.2,M,-25.1,M,2.8,0000*7C
$GPGSA,A,3,04,28,17,08,26,,,,,,,,4.3,2.2,3.7*35
$GPRMC,193930.000,A,3748.1824,N,12217.6738,W,1.16,205.11,170714,,,D*77
$GPVTG,205.11,T,,M,1.16,N,2.1,K,D*0A
$GPGGA,193931.000,3748.1825,N,12217.6739,W,2,05,2.2,12.4,M,-25.1,M,1.8,0000*79
$GPGSA,A,3,04,28,17,08,26,,,,,,,,4.3,2.2,3.7*35
$GPRMC,193931.000,A,3748.1825,N,12217.6739,W,0.55,193.59,170714,,,D*70
$GPVTG,193.59,T,,M,0.55,N,1.0,K,D*0E
$GPGGA,193932.000,3748.1822,N,12217.6742,W,2,04,6.9,12.9,M,-25.1,M,2.8,0000*71
$GPGSA,A,3,04,17,08,26,,,,,,,,,9.7,6.9,6.8*33
$GPGSV,3,1,12,17,82,148,27,22,73,359,,28,50,048,16,26,44,233,32*74
$GPGSV,3,2,12,09,43,129,19,04,25,141,27,08,22,124,15,01,21,059,*70
$GPGSV,3,3,12,24,11,312,30,11,09,043,20,07,06,131,,48,44,197,33*72
$GPRMC,193932.000,A,3748.1822,N,12217.6742,W,0.58,200.74,170714,,,D*73
$GPVTG,200.74,T,,M,0.58,N,1.1,K,D*04
$GPGGA,193933.000,3748.1818,N,12217.6743,W,2,04,6.9,14.7,M,-25.1,M,3.8,0000*71
$GPGSA,A,3,04,17,08,26,,,,,,,,,9.7,6.9,6.8*33
$GPRMC,193933.000,A,3748.1818,N,12217.6743,W,1.23,197.28,170714,,,D*73
$GPVTG,197.28,T,,M,1.23,N,2.3,K,D*0C
$GPGGA,193934.000,3748.1824,N,12217.6741,W,2,05,2.2,15.0,M,-25.1,M,4.8,0000*74
$GPGSA,A,3,04,28,17,08,26,,,,,,,,4.3,2.2,3.7*35
$GPRMC,193934.000,A,3748.1824,N,12217.6741,W,1.33,196.48,170714,,,D*7F
$GPVTG,196.48,T,,M,1.33,N,2.5,K,D*0C
$GPGGA,193935.000,3748.1819,N,12217.6740,W,2,04,6.9,15.8,M,-25.1,M,1.8,0000*79
$GPGSA,A,3,04,17,08,26,,,,,,,,,9.7,6.9,6.8*33
$GPRMC,193935.000,A,3748.1819,N,12217.6740,W,1.89,188.86,170714,,,D*7D
$GPVTG,188.86,T,,M,1.89,N,3.5,K,D*01
$GPGGA,193936.000,3748.1813,N,12217.6740,W,2,03,3.1,15.8,M,-25.1,M,1.8,0000*7A
$GPGSA,A,2,04,17,26,,,,,,,,,,3.3,3.1,1.0*36
$GPRMC,193936.000,A,3748.1813,N,12217.6740,W,2.39,190.39,170714,,,D*71
$GPVTG,190.39,T,,M,2.39,N,4.4,K,D*02
$GPGGA,193937.000,3748.1809,N,12217.6742,W,2,03,3.1,15.4,M,-25.1,M,1.8,0000*7E
$GPGSA,A,2,04,17,26,,,,,,,,,,3.3,3.1,1.0*36
$GPGSV,3,1,12,17,82,148,27,22,73,359,,28,50,048,16,26,44,233,33*75
$GPGSV,3,2,12,09,43,129,18,04,25,141,28,08,22,124,15,01,21,059,*7E
$GPGSV,3,3,12,24,11,312,28,11,09,043,20,07,06,131,,48,44,197,34*7C
$GPRMC,193937.000,A,3748.1809,N,12217.6742,W,1.44,184.16,170714,,,D*78
$GPVTG,184.16,T,,M,1.44,N,2.7,K,D*06
$GPGGA,193938.000,3748.1808,N,12217.6739,W,2,04,6.9,14.6,M,-25.1,M,2.8,0000*76
$GPGSA,A,3,04,17,08,26,,,,,,,,,9.7,6.9,6.9*32
$GPRMC,193938.000,A,3748.1808,N,12217.6739,W,0.68,154.27,170714,,,D*7A
$GPVTG,154.27,T,,M,0.68,N,1.3,K,D*01
$GPGGA,193939.000,3748.1808,N,12217.6736,W,2,04,6.9,14.0,M,-25.1,M,1.8,0000*7D
$GPGSA,A,3,04,17,08,26,,,,,,,,,9.7,6.9,6.9*32
$GPRMC,193939.000,A,3748.1808,N,12217.6736,W,0.67,195.69,170714,,,D*7C
$GPVTG,195.69,T,,M,0.67,N,1.2,K,D*08
$GPGGA,193940.000,3748.1809,N,12217.6735,W,2,04,6.9,13.4,M,-25.1,M,2.8,0000*71
$GPGSA,A,3,04,17,08,26,,,,,,,,,9.7,6.9,6.9*32
$GPRMC,193940.000,A,3748.1809,N,12217.6735,W,0.25,239.07,170714,,,D*7B
$GPVTG,239.07,T,,M,0.25,N,0.5,K,D*05
$GPGGA,193941.000,3748.1820,N,12217.6734,W,2,05,2.2,11.3,M,-25.1,M,1.8,0000*72
$GPGSA,A,3,04,28,17,08,26,,,,,,,,4.3,2.2,3.7*35
$GPRMC,193941.000,A,3748.1820,N,12217.6734,W,0.60,19.58,170714,,,D*4B
$GPVTG,19.58,T,,M,0.60,N,1.1,K,D*3B
$GPGGA,193942.000,3748.1838,N,12217.6732,W,2,05,2.2,8.6,M,-25.1,M,1.8,0000*43
$GPGSA,A,3,04,28,17,08,26,,,,,,,,4.3,2.2,3.7*35
$GPGSV,3,1,12,17,82,147,29,22,73,359,,28,50,049,17,26,44,232,33*75
$GPGSV,3,2,12,09,43,130,19,04,25,141,29,08,22,124,20,01,21,059,*70
$GPRMC,193942.000,A,3748.1838,N,12217.6732,W,0.78,14.14,170714,,,D*4B
$GPVTG,14.14,T,,M,0.78,N,1.4,K,D*32
$GPGGA,193943.000,3748.1843,N,12217.6730,W,2,05,2.2,6.9,M,-25.1,M,1.8,0000*4D
$GPGSA,A,3,04,28,17,08,26,,,,,,,,4.3,2.2,3.7*35
$GPRMC,193943.000,A,3748.1843,N,12217.6730,W,0.65,5.68,170714,,,D*73
$GPVTG,5.68,T,,M,0.65,N,1.2,K,D*03
$GPGGA,193944.000,3748.1845,N,12217.6730,W,2,04,6.9,6.3,M,-25.1,M,2.8,0000*4B
$GPGSA,A,3,04,17,08,26,,,,,,,,,9.7,6.9,6.9*32
$GPRMC,193944.000,A,3748.1845,N,12217.6730,W,0.32,328.04,170714,,,D*76
$GPVTG,328.04,T,,M,0.32,N,0.6,K,D*02
$GPGGA,193945.000,3748.1849,N,12217.6731,W,2,05,2.2,5.5,M,-25.1,M,1.8,0000*4F
$GPGSA,A,3,04,28,17,08,26,,,,,,,,4.3,2.2,3.7*35
$GPRMC,193945.000,A,3748.1849,N,12217.6731,W,0.46,318.52,170714,,,D*79
$GPVTG,318.52,T,,M,0.46,N,0.9,K,D*0E
$GPGGA,193946.000,3748.1847,N,12217.6733,W,2,05,2.2,5.6,M,-25.1,M,2.8,0000*40
$GPGSA,A,3,04,28,17,08,26,,,,,,,,4.3,2.2,3.7*35
$GPRMC,193946.000,A,3748.1847,N,12217.6733,W,0.31,310.56,170714,,,D*7A
$GPVTG,310.56,T,,M,0.31,N,0.6,K,D*0D
$GPGGA,193947.000,3748.1841,N,12217.6735,W,2,05,2.2,7.1,M,-25.1,M,1.8,0000*47
$GPGSA,A,3,04,28,17,08,26,,,,,,,,4.3,2.2,3.7*35
$GPGSV,3,1,12,17,82,147,29,22,73,359,,28,50,049,19,26,44,232,34*7C
$GPGSV,3,2,12,09,43,130,17,04,25,141,29,08,22,124,20,01,21,059,*7E
$GPGSV,3,3,12,24,11,312,27,11,09,043,21,07,06,131,,48,44,197,35*73
$GPRMC,193947.000,A,3748.1841,N,12217.6735,W,0.35,196.02,170714,,,D*72
$GPVTG,196.02,T,,M,0.35,N,0.6,K,D*04
$GPGGA,193948.000,3748.1840,N,12217.6734,W,2,05,2.2,7.5,M,-25.1,M,1.8,0000*4C
$GPGSA,A,3,04,28,17,08,26,,,,,,,,4.3,2.2,3.7*35
$GPRMC,193948.000,A,3748.1840,N,12217.6734,W,0.14,94.73,170714,,,D*4B
$GPVTG,94.73,T,,M,0.14,N,0.3,K,D*37
$GPGGA,193949.000,3748.1841,N,12217.6734,W,2,05,2.2,6.6,M,-25.1,M,1.8,0000*4E
$GPGSA,A,3,04,28,17,08,26,,,,,,,,4.3,2.2,3.7*35
$GPRMC,193949.000,A,3748.1841,N,12217.6734,W,0.17,27.52,170714,,,D*43
$GPVTG,27.52,T,,M,0.17,N,0.3,K,D*3F
$GPGGA,193950.000,3748.1836,N,12217.6735,W,2,05,2.2,7.3,M,-25.1,M,2.8,0000*40
$GPGSA,A,3,04,28,17,08,26,,,,,,,,4.3,2.2,3.7*35
$GPRMC,193950.000,A,3748.1836,N,12217.6735,W,0.32,286.46,170714,,,D*71
$GPVTG,286.46,T,,M,0.32,N,0.6,K,D*01
$GPGGA,193951.000,3748.1833,N,12217.6735,W,2,05,2.2,8.1,M,-25.1,M,3.8,0000*48
$GPGSA,A,3,04,28,17,08,26,,,,,,,,4.3,2.2,3.7*35
$GPRMC,193951.000,A,3748.1833,N,12217.6735,W,0.39,327.62,170714,,,D*72
$GPVTG,327.62,T,,M,0.39,N,0.7,K,D*07
$GPGGA,193952.000,3748.1820,N,12217.6734,W,2,05,2.2,11.1,M,-25.1,M,4.8,0000*77
$GPGSA,A,3,04,28,17,08,26,,,,,,,,4.3,2.2,3.7*35
$GPGSV,3,1,12,17,82,147,28,22,73,359,,28,50,049,24,26,44,232,34*73
$GPGSV,3,2,12,09,43,130,16,04,25,141,29,08,22,124,18,01,21,059,*74
$GPGSV,3,3,12,24,11,312,20,11,09,043,21,07,06,131,,48,44,197,34*75
$GPRMC,193952.000,A,3748.1820,N,12217.6734,W,0.80,211.69,170714,,,D*7F
$GPVTG,211.69,T,,M,0.80,N,1.5,K,D*09
$GPGGA,193953.000,3748.1819,N,12217.6736,W,2,05,2.2,10.9,M,-25.1,M,1.8,0000*72
$GPGSA,A,3,04,28,17,08,26,,,,,,,,4.3,2.2,3.7*35
$GPRMC,193953.000,A,3748.1819,N,12217.6736,W,0.59,229.35,170714,,,D*70
$GPVTG,229.35,T,,M,0.59,N,1.1,K,D*0B
$GPGGA,193954.000,3748.1823,N,12217.6738,W,2,05,2.2,9.6,M,-25.1,M,1.8,0000*45
$GPGSA,A,3,04,28,17,08,26,,,,,,,,4.3,2.2,3.7*35
$GPRMC,193954.000,A,3748.1823,N,12217.6738,W,0.49,305.14,170714,,,D*7D
$GPVTG,305.14,T,,M,0.49,N,0.9,K,D*0F
$GPGGA,193955.000,3748.1823,N,12217.6740,W,2,05,2.2,8.9,M,-25.1,M,1.8,0000*45
$GPGSA,A,3,04,28,17,08,26,,,,,,,,4.3,2.2,3.7*35
$GPRMC,193955.000,A,3748.1823,N,12217.6740,W,0.50,262.47,170714,,,D*7D
$GPVTG,262.47,T,,M,0.50,N,0.9,K,D*01
$GPGGA,193956.000,3748.1827,N,12217.6742,W,2,05,2.2,7.5,M,-25.1,M,1.8,0000*43
$GPGSA,A,3,04,28,17,08,26,,,,,,,,4.3,2.2,3.7*35
$GPRMC,193956.000,A,3748.1827,N,12217.6742,W,0.66,238.00,170714,,,D*71
$GPVTG,238.00,T,,M,0.66,N,1.2,K,D*02
$GPGGA,193957.000,3748.1827,N,12217.6743,W,2,05,2.2,7.0,M,-25.1,M,1.8,0000*46
$GPGSA,A,3,04,28,17,08,26,,,,,,,,4.3,2.2,3.7*35
$GPGSV,3,1,12,17,82,147,28,22,73,359,,28,50,049,24,26,44,232,33*74
$GPGSV,3,2,12,09,43,130,,04,25,141,29,08,22,124,16,01,21,059,*7D
$GPGSV,3,3,12,24,11,312,19,11,09,043,21,07,06,131,,48,44,197,33*78
$GPRMC,193957.000,A,3748.1827,N,12217.6743,W,0.29,250.22,170714,,,D*74
$GPVTG,250.22,T,,M,0.29,N,0.5,K,D*01
$GPGGA,193958.000,3748.1827,N,12217.6744,W,2,05,2.2,6.6,M,-25.1,M,2.8,0000*4A
$GPGSA,A,3,04,28,17,08,26,,,,,,,,4.3,2.2,3.7*35
$GPRMC,193958.000,A,3748.1827,N,12217.6744,W,0.25,310.91,170714,,,D*7D
$GPVTG,310.91,T,,M,0.25,N,0.5,K,D*00
$GPGGA,193959.000,3748.1827,N,12217.6744,W,2,05,2.2,6.5,M,-25.1,M,1.8,0000*4B
$GPGSA,A,3,04,28,17,08,26,,,,,,,,4.3,2.2,3.7*35
$GPRMC,193959.000,A,3748.1827,N,12217.6744,W,0.24,271.78,170714,,,D*7C
$GPVTG,271.78,T,,M,0.24,N,0.5,K,D*00
$GPGGA,194000.000,3748.1829,N,12217.6744,W,2,05,2.2,6.2,M,-25.1,M,1.8,0000*40
$GPGSA,A,3,04,28,17,08,26,,,,,,,,4.3,2.2,3.7*35
$GPRMC,194000.000,A,3748.1829,N,12217.6744,W,0.42,4.33,170714,,,D*7F
$GPVTG,4.33,T,,M,0.42,N,0.8,K,D*02
$GPGGA,194001.000,3748.1830,N,12217.6743,W,2,05,2.2,6.1,M,-25.1,M,1.8,0000*4D
$GPGSA,A,3,04,28,17,08,26,,,,,,,,4.3,2.2,3.7*35
$GPRMC,194001.000,A,3748.1830,N,12217.6743,W,0.22,31.79,170714,,,D*4F
$GPVTG,31.79,T,,M,0.22,N,0.4,K,D*30
$GPGGA,194002.000,3748.1834,N,12217.6742,W,2,05,2.2,5.4,M,-25.1,M,2.8,0000*4E
$GPGSA,A,3,04,28,17,08,26,,,,,,,,4.3,2.2,3.7*35
$GPGSV,3,1,12,17,82,147,27,22,73,359,,28,50,049,24,26,44,232,33*7B
$GPGSV,3,2,12,09,43,130,,04,25,141,29,08,22,124,15,01,21,059,*7E
$GPGSV,3,3,12,24,11,312,20,11,09,043,22,07,06,131,,48,44,197,33*71
$GPRMC,194002.000,A,3748.1834,N,12217.6742,W,0.19,25.54,170714,,,D*4B
$GPVTG,25.54,T,,M,0.19,N,0.3,K,D*35
$GPGGA,194003.000,3748.1835,N,12217.6741,W,2,05,2.2,5.4,M,-25.1,M,1.8,0000*4E
$GPGSA,A,3,04,28,17,08,26,,,,,,,,4.3,2.2,3.7*35
$GPRMC,194003.000,A,3748.1835,N,12217.6741,W,0.44,20.27,170714,,,D*41
$GPVTG,20.27,T,,M,0.44,N,0.8,K,D*37
$GPGGA,194004.000,3748.1843,N,12217.6740,W,2,05,2.2,4.2,M,-25.1,M,1.8,0000*4E
$GPGSA,A,3,04,28,17,08,26,,,,,,,,4.3,2.2,3.7*35
$GPRMC,194004.000,A,3748.1843,N,12217.6740,W,0.98,15.43,170714,,,D*43
$GPVTG,15.43,T,,M,0.98,N,1.8,K,D*33
$GPGGA,194005.000,3748.1851,N,12217.6739,W,2,05,2.2,3.0,M,-25.1,M,1.8,0000*47
$GPGSA,A,3,04,28,17,08,26,,,,,,,,4.3,2.2,3.7*35
$GPRMC,194005.000,A,3748.1851,N,12217.6739,W,0.89,5.98,170714,,,D*78
$GPVTG,5.98,T,,M,0.89,N,1.7,K,D*0B
$GPGGA,194006.000,3748.1865,N,12217.6738,W,2,05,2.2,0.9,M,-25.1,M,1.8,0000*48
$GPGSA,A,3,04,28,17,08,26,,,,,,,,4.3,2.2,3.7*35
$GPRMC,194006.000,A,3748.1865,N,12217.6738,W,1.30,7.16,170714,,,D*7A
$GPVTG,7.16,T,,M,1.30,N,2.4,K,D*0C
$GPGGA,194007.000,3748.1873,N,12217.6737,W,2,05,2.2,-0.4,M,-25.1,M,1.8,0000*61
$GPGSA,A,3,04,28,17,08,26,,,,,,,,4.3,2.2,3.7*35
$GPGSV,3,1,12,17,82,147,28,22,73,359,,28,50,049,23,26,44,232,33*73
$GPGSV,3,2,12,09,43,130,,04,25,141,29,08,22,124,15,01,21,059,*7E
$GPGSV,3,3,12,24,11,312,,11,09,043,22,07,06,131,,48,44,197,34*74
$GPRMC,194007.000,A,3748.1873,N,12217.6737,W,1.23,7.74,170714,,,D*75
$GPVTG,7.74,T,,M,1.23,N,2.3,K,D*0D
$GPGGA,194008.000,3748.1872,N,12217.6738,W,2,05,2.2,-0.6,M,-25.1,M,2.8,0000*61
$GPGSA,A,3,04,28,17,08,26,,,,,,,,4.3,2.2,3.7*35
$GPRMC,194008.000,A,3748.1872,N,12217.6738,W,0.61,358.79,170714,,,D*77
$GPVTG,358.79,T,,M,0.61,N,1.1,K,D*0F
$GPGGA,194009.000,3748.1874,N,12217.6738,W,2,05,2.2,-1.2,M,-25.1,M,3.8,0000*62
$GPGSA,A,3,04,28,17,08,26,,,,,,,,4.3,2.2,3.7*35
$GPRMC,194009.000,A,3748.1874,N,12217.6738,W,0.33,348.86,170714,,,D*76
$GPVTG,348.86,T,,M,0.33,N,0.6,K,D*0F
$GPGGA,194010.000,3748.1880,N,12217.6738,W,2,05,2.2,-2.4,M,-25.1,M,4.8,0000*63
$GPGSA,A,3,04,28,17,08,26,,,,,,,,4.3,2.2,3.7*35
$GPRMC,194010.000,A,3748.1880,N,12217.6738,W,0.37,334.01,170714,,,D*75
$GPVTG,334.01,T,,M,0.37,N,0.7,K,D*0E
$GPGGA,194011.000,3748.1880,N,12217.6738,W,2,05,2.2,-2.5,M,-25.1,M,1.8,0000*66
$GPGSA,A,3,04,28,17,08,26,,,,,,,,4.3,2.2,3.7*35
$GPRMC,194011.000,A,3748.1880,N,12217.6738,W,1.00,351.42,170714,,,D*75
$GPVTG,351.42,T,,M,1.00,N,1.9,K,D*00
$GPGGA,194012.000,3748.1890,N,12217.6738,W,2,05,2.2,-4.1,M,-25.1,M,1.8,0000*66
$GPGSA,A,3,04,28,17,08,26,,,,,,,,4.3,2.2,3.7*35
$GPGSV,3,1,12,17,82,147,28,22,73,359,,28,50,049,22,26,44,232,33*72
$GPGSV,3,2,12,09,43,130,,04,25,141,29,08,22,124,16,01,21,059,*7D
$GPGSV,3,3,12,24,11,312,,11,09,043,24,07,06,131,,48,44,197,34*72
$GPRMC,194012.000,A,3748.1890,N,12217.6738,W,1.62,5.35,170714,,,D*71
$GPVTG,5.35,T,,M,1.62,N,3.0,K,D*0D
$GPGGA,194013.000,3748.1889,N,12217.6737,W,2,05,2.2,-4.3,M,-25.1,M,1.8,0000*62
$GPGSA,A,3,04,28,17,08,26,,,,,,,,4.3,2.2,3.7*35
$GPRMC,194013.000,A,3748.1889,N,12217.6737,W,0.86,354.03,170714,,,D*7E
$GPVTG,354.03,T,,M,0.86,N,1.6,K,D*00
$GPGGA,194014.000,3748.1899,N,12217.6737,W,2,05,2.2,-6.0,M,-25.1,M,2.8,0000*66
$GPGSA,A,3,04,28,17,08,26,,,,,,,,4.3,2.2,3.7*35
$GPRMC,194014.000,A,3748.1899,N,12217.6737,W,0.98,359.18,170714,,,D*70
$GPVTG,359.18,T,,M,0.98,N,1.8,K,D*06
$GPGGA,194015.000,3748.1906,N,12217.6737,W,2,05,2.2,-7.4,M,-25.1,M,3.8,0000*64
$GPGSA,A,3,04,28,17,08,26,,,,,,,,4.3,2.2,3.7*35
$GPRMC,194015.000,A,3748.1906,N,12217.6737,W,0.75,358.18,170714,,,D*74
$GPVTG,358.18,T,,M,0.75,N,1.4,K,D*08
$GPGGA,194016.000,3748.1909,N,12217.6738,W,2,04,6.9,-8.2,M,-25.1,M,4.8,0000*67
$GPGSA,A,3,04,17,08,26,,,,,,,,,9.7,6.9,6.9*32
$GPRMC,194016.000,A,3748.1909,N,12217.6738,W,1.02,6.51,170714,,,D*73
$GPVTG,6.51,T,,M,1.02,N,1.9,K,D*01
$GPGGA,194017.000,3748.1913,N,12217.6738,W,2,04,6.9,-9.1,M,-25.1,M,1.8,0000*6A
$GPGSA,A,3,04,17,08,26,,,,,,,,,9.7,6.9,6.9*32
$GPGSV,3,1,12,17,82,145,29,22,73,000,,28,50,049,10,26,44,232,33*7F
$GPGSV,3,2,12,09,43,130,,04,25,141,28,08,22,124,25,01,21,059,*7C
$GPGSV,3,3,12,24,12,312,,06,10,167,,11,09,042,25,07,05,131,*71
$GPRMC,194017.000,A,3748.1913,N,12217.6738,W,1.12,11.38,170714,,,D*41
$GPGGA,194018.000,3748.1900,N,12217.6740,W,2,05,2.2,-7.3,M,-25.1,M,1.8,0000*6A
$GPGSA,A,3,04,28,17,08,26,,,,,,,,4.3,2.2,3.7*35
$GPRMC,194018.000,A,3748.1900,N,12217.6740,W,0.83,338.77,170714,,,D*79
$GPVTG,338.77,T,,M,0.83,N,1.5,K,D*0F
$GPGGA,194019.000,3748.1898,N,12217.6743,W,2,05,2.2,-5.8,M,-25.1,M,1.8,0000*61
$GPGSA,A,3,04,28,17,08,26,,,,,,,,4.3,2.2,3.7*35
$GPRMC,194019.000,A,3748.1898,N,12217.6743,W,1.20,346.07,170714,,,D*7D
$GPVTG,346.07,T,,M,1.20,N,2.2,K,D*0D
$GPGGA,194020.000,3748.1897,N,12217.6744,W,2,05,2.2,-8.3,M,-25.1,M,2.8,0000*66
$GPGSA,A,3,04,28,17,08,26,,,,,,,,4.3,2.2,3.7*35
$GPRMC,194020.000,A,3748.1897,N,12217.6744,W,0.46,325.27,170714,,,D*79
$GPVTG,325.27,T,,M,0.46,N,0.8,K,D*03
$GPGGA,194021.000,3748.1892,N,12217.6746,W,2,05,2.2,-7.0,M,-25.1,M,3.8,0000*6D
$GPGSA,A,3,04,28,17,08,26,,,,,,,,4.3,2.2,3.7*35
$GPRMC,194021.000,A,3748.1892,N,12217.6746,W,1.47,335.79,170714,,,D*75
$GPVTG,335.79,T,,M,1.47,N,2.7,K,D*04
$GPGGA,194022.000,3748.1885,N,12217.6746,W,2,05,2.2,-4.8,M,-25.1,M,4.8,0000*64
$GPGSA,A,3,04,28,17,08,26,,,,,,,,4.3,2.2,3.7*35
$GPGSV,3,1,12,17,82,145,24,22,73,000,,28,50,049,21,26,44,232,33*70
$GPGSV,3,2,12,09,43,130,,04,25,141,22,08,22,124,15,01,21,059,*75
$GPGSV,3,3,12,24,12,312,,06,10,167,17,11,09,042,20,07,05,131,*72
$GPRMC,194022.000,A,3748.1885,N,12217.6746,W,1.01,339.94,170714,,,D*7D
$GPVTG,339.94,T,,M,1.01,N,1.9,K,D*04
$GPGGA,194023.000,3748.1881,N,12217.6748,W,2,05,2.2,-2.6,M,-25.1,M,1.8,0000*62
$GPGSA,A,3,04,28,17,08,26,,,,,,,,4.3,2.2,3.7*35
$GPRMC,194023.000,A,3748.1881,N,12217.6748,W,0.88,341.17,170714,,,D*72
$GPVTG,341.17,T,,M,0.88,N,1.6,K,D*0F
$GPGGA,194024.000,3748.1882,N,12217.6747,W,2,05,2.2,-3.6,M,-25.1,M,1.8,0000*68
$GPGSA,A,3,04,28,17,08,26,,,,,,,,4.3,2.2,3.7*35
$GPRMC,194024.000,A,3748.1882,N,12217.6747,W,0.27,350.29,170714,,,D*71
$GPVTG,350.29,T,,M,0.27,N,0.5,K,D*05
$GPGGA,194025.000,3748.1888,N,12217.6746,W,2,05,2.2,-5.1,M,-25.1,M,1.8,0000*63
$GPGSA,A,3,04,28,17,08,26,,,,,,,,4.3,2.2,3.7*35
$GPRMC,194025.000,A,3748.1888,N,12217.6746,W,0.16,358.86,170714,,,D*74
$GPVTG,358.86,T,,M,0.16,N,0.3,K,D*0C
$GPGGA,194026.000,3748.1893,N,12217.6744,W,2,05,2.2,-7.0,M,-25.1,M,2.8,0000*68
$GPGSA,A,3,04,28,17,08,26,,,,,,,,4.3,2.2,3.7*35
$GPRMC,194026.000,A,3748.1893,N,12217.6744,W,0.08,92.48,170714,,,D*47
$GPVTG,92.48,T,,M,0.08,N,0.2,K,D*35
$GPGGA,194027.000,3748.1902,N,12217.6743,W,2,05,2.2,-9.3,M,-25.1,M,3.8,0000*6B
$GPGSA,A,3,04,28,17,08,26,,,,,,,,4.3,2.2,3.7*35
$GPGSV,3,1,12,17,82,145,27,22,73,000,,28,50,049,20,26,44,232,33*72
$GPGSV,3,2,12,09,43,130,,04,25,141,23,08,22,124,17,01,21,059,*76
$GPGSV,3,3,12,24,12,312,,06,10,167,24,11,09,042,21,07,05,131,*73
$GPRMC,194027.000,A,3748.1902,N,12217.6743,W,0.43,93.69,170714,,,D*45
$GPVTG,93.69,T,,M,0.43,N,0.8,K,D*32
$GPGGA,194028.000,3748.1901,N,12217.6742,W,2,05,2.2,-9.9,M,-25.1,M,1.8,0000*6E
$GPGSA,A,3,04,28,17,08,26,,,,,,,,4.3,2.2,3.7*35
$GPRMC,194028.000,A,3748.1901,N,12217.6742,W,0.18,130.67,170714,,,D*70
$GPVTG,130.67,T,,M,0.18,N,0.3,K,D*01
$GPGGA,194029.000,3748.1901,N,12217.6744,W,2,05,2.2,-10.0,M,-25.1,M,1.8,0000*58
$GPGSA,A,3,04,28,17,08,26,,,,,,,,4.3,2.2,3.7*35
$GPRMC,194029.000,A,3748.1901,N,12217.6744,W,0.42,335.29,170714,,,D*75
$GPVTG,335.29,T,,M,0.42,N,0.8,K,D*08
$GPGGA,194030.000,3748.1907,N,12217.6747,W,2,05,2.2,-10.9,M,-25.1,M,1.8,0000*5C
$GPGSA,A,3,04,28,17,08,26,,,,,,,,4.3,2.2,3.7*35
$GPRMC,194030.000,A,3748.1907,N,12217.6747,W,1.08,346.76,170714,,,D*79
$GPVTG,346.76,T,,M,1.08,N,2.0,K,D*03
$GPGGA,194031.000,3748.1909,N,12217.6746,W,2,05,2.2,-11.9,M,-25.1,M,1.8,0000*53
$GPGSA,A,3,04,28,17,08,26,,,,,,,,4.3,2.2,3.7*35
$GPRMC,194031.000,A,3748.1909,N,12217.6746,W,0.75,336.79,170714,,,D*74
$GPVTG,336.79,T,,M,0.75,N,1.4,K,D*07
$GPGGA,194032.000,3748.1915,N,12217.6750,W,2,05,2.2,-12.6,M,-25.1,M,2.8,0000*55
$GPGSA,A,3,04,28,17,08,26,,,,,,,,4.3,2.2,3.7*35
$GPGSV,3,1,12,17,82,145,28,22,73,000,,28,50,049,20,26,44,232,33*7D
$GPGSV,3,2,12,09,43,130,,04,25,141,24,08,22,124,19,01,21,059,*7F
$GPGSV,3,3,12,24,12,312,,06,10,167,24,11,09,042,22,07,05,131,*70
$GPVTG,354.68,T,,M,0.22,N,0.4,K,D*00
$GPGGA,194033.000,3748.1911,N,12217.6755,W,2,05,2.2,-11.2,M,-25.1,M,3.8,0000*53
$GPGSA,A,3,04,28,17,08,26,,,,,,,,4.3,2.2,3.7*35
$GPRMC,194033.000,A,3748.1911,N,12217.6755,W,0.28,324.10,170714,,,D*79
$GPVTG,324.10,T,,M,0.28,N,0.5,K,D*03
$GPGGA,194034.000,3748.1912,N,12217.6759,W,2,05,2.2,-9.7,M,-25.1,M,4.8,0000*60
$GPGSA,A,3,04,28,17,08,26,,,,,,,,4.3,2.2,3.7*35
$GPRMC,194034.000,A,3748.1912,N,12217.6759,W,0.60,284.73,170714,,,D*73
$GPVTG,284.73,T,,M,0.60,N,1.1,K,D*04
$GPGGA,194035.000,3748.1907,N,12217.6761,W,2,05,2.2,-8.0,M,-25.1,M,1.8,0000*6D
$GPGSA,A,3,04,28,17,08,26,,,,,,,,4.3,2.2,3.7*35
$GPRMC,194035.000,A,3748.1907,N,12217.6761,W,0.61,217.43,170714,,,D*75
$GPVTG,217.43,T,,M,0.61,N,1.1,K,D*0C
$GPGGA,194036.000,3748.1895,N,12217.6762,W,2,04,2.3,-5.8,M,-25.1,M,1.8,0000*62
$GPGSA,A,3,04,28,17,26,,,,,,,,,4.5,2.3,3.9*34
$GPRMC,194036.000,A,3748.1895,N,12217.6762,W,0.72,195.94,170714,,,D*7E
$GPVTG,195.94,T,,M,0.72,N,1.3,K,D*0F
$GPGGA,194037.000,3748.1893,N,12217.6766,W,2,05,2.2,-8.0,M,-25.1,M,1.8,0000*64
$GPGSA,A,3,04,28,17,08,26,,,,,,,,4.3,2.2,3.7*35
$GPGSV,3,1,12,17,82,145,21,22,73,000,,28,50,049,25,26,44,232,34*76
$GPGSV,3,2,12,09,43,130,,04,25,141,29,08,22,124,12,01,21,059,*79
$GPGSV,3,3,12,24,12,312,,06,10,167,25,11,09,042,29,07,05,131,*7A
$GPRMC,194037.000,A,3748.1893,N,12217.6766,W,0.34,194.79,170714,,,D*7D
$GPVTG,194.79,T,,M,0.34,N,0.6,K,D*0B
$GPGGA,194038.000,3748.1884,N,12217.6766,W,2,05,2.2,-6.4,M,-25.1,M,2.8,0000*64
$GPGSA,A,3,04,28,17,08,26,,,,,,,,4.3,2.2,3.7*35
$GPRMC,194038.000,A,3748.1884,N,12217.6766,W,0.31,183.61,170714,,,D*7E
$GPVTG,183.61,T,,M,0.31,N,0.6,K,D*01
$GPGGA,194039.000,3748.1884,N,12217.6768,W,2,05,2.2,-7.4,M,-25.1,M,3.8,0000*6B
$GPGSA,A,3,04,28,17,08,26,,,,,,,,4.3,2.2,3.7*35
$GPRMC,194039.000,A,3748.1884,N,12217.6768,W,0.20,309.29,170714,,,D*7D
$GPVTG,309.29,T,,M,0.20,N,0.4,K,D*0F
$GPGGA,194040.000,3748.1879,N,12217.6765,W,2,05,2.2,-5.0,M,-25.1,M,4.8,0000*6B
$GPGSA,A,3,04,28,17,08,26,,,,,,,,4.3,2.2,3.7*35
$GPRMC,194040.000,A,3748.1879,N,12217.6765,W,0.51,355.09,170714,,,D*71
$GPVTG,355.09,T,,M,0.51,N,0.9,K,D*0F
$GPGGA,194041.000,3748.1870,N,12217.6766,W,2,05,2.2,-3.4,M,-25.1,M,1.8,0000*67
$GPGSA,A,3,04,28,17,08,26,,,,,,,,4.3,2.2,3.7*35
$GPRMC,194041.000,A,3748.1870,N,12217.6766,W,0.27,226.18,170714,,,D*7E
$GPVTG,226.18,T,,M,0.27,N,0.5,K,D*07
$GPGGA,194042.000,3748.1867,N,12217.6766,W,2,05,2.2,-2.4,M,-25.1,M,1.8,0000*63
$GPGSA,A,3,04,28,17,08,26,,,,,,,,4.3,2.2,3.7*35
$GPGSV,3,1,12,17,83,144,25,22,74,001,,28,50,049,22,26,44,232,34*73
$GPGSV,3,2,12,09,43,130,,04,26,141,29,08,22,124,17,01,21,059,*7F
$GPGSV,3,3,12,24,12,313,,06,10,167,22,11,09,042,23,07,05,131,*76
$GPRMC,194042.000,A,3748.1867,N,12217.6766,W,0.73,187.70,170714,,,D*7C
$GPVTG,187.70,T,,M,0.73,N,1.3,K,D*07
$GPGGA,194043.000,3748.1861,N,12217.6764,W,2,05,2.2,-0.6,M,-25.1,M,1.8,0000*66
$GPGSA,A,3,04,28,17,08,26,,,,,,,,4.3,2.2,3.7*35
$GPRMC,194043.000,A,3748.1861,N,12217.6764,W,0.70,173.98,170714,,,D*77
$GPVTG,173.98,T,,M,0.70,N,1.3,K,D*09
$GPGGA,194044.000,3748.1862,N,12217.6765,W,2,05,2.2,-1.7,M,-25.1,M,1.8,0000*63
$GPGSA,A,3,04,28,17,08,26,,,,,,,,4.3,2.2,3.7*35
$GPRMC,194044.000,A,3748.1862,N,12217.6765,W,0.53,158.24,170714,,,D*7D
$GPVTG,158.24,T,,M,0.53,N,1.0,K,D*05
$GPGGA,194045.000,3748.1868,N,12217.6763,W,2,04,2.3,-2.6,M,-25.1,M,1.8,0000*6C
$GPGSA,A,3,04,28,17,26,,,,,,,,,4.5,2.3,3.9*34
$GPRMC,194045.000,A,3748.1868,N,12217.6763,W,0.64,190.41,170714,,,D*73
$GPVTG,190.41,T,,M,0.64,N,1.2,K,D*04
$GPGGA,194046.000,3748.1873,N,12217.6762,W,2,04,2.3,-2.9,M,-25.1,M,1.8,0000*6B
$GPGSA,A,3,04,28,17,26,,,,,,,,,4.5,2.3,3.9*34
$GPRMC,194046.000,A,3748.1873,N,12217.6762,W,0.30,191.91,170714,,,D*76
$GPVTG,191.91,T,,M,0.30,N,0.6,K,D*0C
$GPGGA,194047.000,3748.1874,N,12217.6762,W,2,04,2.3,-3.5,M,-25.1,M,1.8,0000*60
$GPGSA,A,3,04,28,17,26,,,,,,,,,4.5,2.3,3.9*34
$GPGSV,3,1,12,17,83,143,22,22,74,001,,28,50,049,23,26,43,232,34*75
$GPGSV,3,2,12,09,43,130,,04,26,141,26,08,22,124,,01,21,059,*76
$GPGSV,3,3,12,24,12,313,,06,10,167,24,11,09,042,23,07,05,131,*70
$GPVTG,53.75,T,,M,0.06,N,0.1,K,D*3B
$GPGGA,194048.000,3748.1875,N,12217.6758,W,2,04,2.3,-4.5,M,-25.1,M,1.8,0000*60
$GPGSA,A,3,04,28,17,26,,,,,,,,,4.5,2.3,3.9*34
$GPRMC,194048.000,A,3748.1875,N,12217.6758,W,0.07,76.31,170714,,,D*41
$GPVTG,76.31,T,,M,0.07,N,0.1,K,D*3D
$GPGGA,194049.000,3748.1880,N,12217.6753,W,2,04,2.3,-4.6,M,-25.1,M,1.8,0000*63
$GPGSA,A,3,04,28,17,26,,,,,,,,,4.5,2.3,3.9*34
$GPRMC,194049.000,A,3748.1880,N,12217.6753,W,0.67,331.51,170714,,,D*71
$GPVTG,331.51,T,,M,0.67,N,1.2,K,D*0F
$GPGGA,194050.000,3748.1889,N,12217.6751,W,2,04,2.3,-6.6,M,-25.1,M,2.8,0000*61
$GPGSA,A,3,04,28,17,26,,,,,,,,,4.5,2.3,3.9*34
$GPRMC,194050.000,A,3748.1889,N,12217.6751,W,1.50,340.08,170714,,,D*7D
$GPVTG,340.08,T,,M,1.50,N,2.8,K,D*09
$GPGGA,194051.000,3748.1889,N,12217.6746,W,2,04,6.9,-4.9,M,-25.1,M,3.8,0000*64
$GPGSA,A,3,04,08,17,26,,,,,,,,,9.7,6.9,6.9*32
$GPRMC,194051.000,A,3748.1889,N,12217.6746,W,1.38,331.14,170714,,,D*7F
$GPVTG,331.14,T,,M,1.38,N,2.6,K,D*02
$GPGGA,194052.000,3748.1878,N,12217.6743,W,2,05,2.2,-4.1,M,-25.1,M,4.8,0000*6D
$GPGSA,A,3,04,28,08,17,26,,,,,,,,4.3,2.2,3.7*35
$GPGSV,3,1,12,17,83,143,22,22,74,001,,28,50,049,17,26,43,232,29*7E
$GPGSV,3,2,12,09,43,130,,04,26,141,17,08,22,124,16,01,21,059,*73
$GPGSV,3,3,12,24,12,313,,06,10,167,14,11,09,042,22,07,05,131,*72
$GPRMC,194052.000,A,3748.1878,N,12217.6743,W,0.74,232.63,170714,,,D*7C
$GPVTG,232.63,T,,M,0.74,N,1.4,K,D*08
$GPGGA,194053.000,3748.1860,N,12217.6738,W,2,05,2.2,-1.1,M,-25.1,M,5.8,0000*6D
$GPGSA,A,3,04,28,08,17,26,,,,,,,,4.3,2.2,3.7*35
$GPRMC,194053.000,A,3748.1860,N,12217.6738,W,1.70,199.37,170714,,,D*7E
$GPVTG,199.37,T,,M,1.70,N,3.2,K,D*0A
$GPGGA,194054.000,3748.1850,N,12217.6735,W,2,05,2.2,1.6,M,-25.1,M,1.8,0000*4A
$GPGSA,A,3,04,28,08,17,26,,,,,,,,4.3,2.2,3.7*35
$GPRMC,194054.000,A,3748.1850,N,12217.6735,W,1.59,168.45,170714,,,D*77
$GPVTG,168.45,T,,M,1.59,N,3.0,K,D*08
$GPGGA,194055.000,3748.1835,N,12217.6734,W,2,05,2.2,3.4,M,-25.1,M,1.8,0000*49
$GPGSA,A,3,04,28,08,17,26,,,,,,,,4.3,2.2,3.7*35
$GPRMC,194055.000,A,3748.1835,N,12217.6734,W,2.45,190.06,170714,,,D*7A
$GPVTG,190.06,T,,M,2.45,N,4.5,K,D*04
$GPGGA,194056.000,3748.1828,N,12217.6732,W,2,05,2.2,4.9,M,-25.1,M,2.8,0000*49
$GPGSA,A,3,04,28,08,17,26,,,,,,,,4.3,2.2,3.7*35
$GPRMC,194056.000,A,3748.1828,N,12217.6732,W,2.50,190.40,170714,,,D*75
$GPVTG,190.40,T,,M,2.50,N,4.6,K,D*01
$GPGGA,194057.000,3748.1826,N,12217.6732,W,2,05,2.2,6.4,M,-25.1,M,3.8,0000*48
$GPGSA,A,3,04,28,08,17,26,,,,,,,,4.3,2.2,3.7*35
$GPGSV,3,1,12,17,83,143,23,22,74,001,,28,50,049,17,26,43,232,29*7F
$GPGSV,3,2,12,09,43,130,,04,26,141,30,08,22,124,26,01,21,059,*75
$GPGSV,3,3,12,24,12,313,,06,10,167,15,11,09,042,13,07,05,131,*71
$GPRMC,194057.000,A,3748.1826,N,12217.6732,W,1.67,181.88,170714,,,D*79
$GPVTG,181.88,T,,M,1.67,N,3.1,K,D*02
$GPGGA,194058.000,3748.1833,N,12217.6735,W,2,05,2.2,5.8,M,-25.1,M,4.8,0000*4C
$GPGSA,A,3,04,28,08,17,26,,,,,,,,4.3,2.2,3.7*35
$GPRMC,194058.000,A,3748.1833,N,12217.6735,W,1.17,179.76,170714,,,D*74
$GPVTG,179.76,T,,M,1.17,N,2.2,K,D*01
$GPGGA,194059.000,3748.1833,N,12217.6735,W,2,04,6.9,5.3,M,-25.1,M,5.8,0000*49
$GPGSA,A,3,04,08,17,26,,,,,,,,,9.7,6.9,6.9*32
$GPRMC,194059.000,A,3748.1833,N,12217.6735,W,0.50,164.81,170714,,,D*73
$GPVTG,164.81,T,,M,0.50,N,0.9,K,D*0E
$GPGGA,194100.000,3748.1835,N,12217.6736,W,2,05,2.2,4.8,M,-25.1,M,6.8,0000*46
$GPGSA,A,3,04,28,08,17,26,,,,,,,,4.3,2.2,3.7*35
$GPRMC,194100.000,A,3748.1835,N,12217.6736,W,0.22,73.86,170714,,,D*4E
$GPVTG,73.86,T,,M,0.22,N,0.4,K,D*36
$GPGGA,194101.000,3748.1840,N,12217.6735,W,2,05,2.2,4.1,M,-25.1,M,7.8,0000*4E
$GPGSA,A,3,04,28,08,17,26,,,,,,,,4.3,2.2,3.7*35
$GPRMC,194101.000,A,3748.1840,N,12217.6735,W,0.62,24.95,170714,,,D*4A
$GPVTG,24.95,T,,M,0.62,N,1.1,K,D*36
$GPGGA,194102.000,3748.1857,N,12217.6741,W,2,05,2.2,0.5,M,-25.1,M,8.8,0000*47
$GPGSA,A,3,04,28,08,17,26,,,,,,,,4.3,2.2,3.7*35
$GPGSV,3,1,12,17,83,143,21,22,74,001,,28,50,049,17,26,43,232,29*7D
$GPGSV,3,2,12,09,43,130,25,04,26,141,17,08,22,124,15,01,21,059,*77
$GPGSV,3,3,12,24,12,313,,06,10,167,14,11,09,042,20,07,05,131,*70
$GPVTG,343.53,T,,M,1.35,N,2.5,K,D*0A
$GPGGA,194103.000,3748.1871,N,12217.6746,W,2,05,2.2,-2.1,M,-25.1,M,9.8,0000*6F
$GPGSA,A,3,04,28,08,17,26,,,,,,,,4.3,2.2,3.7*35
$GPRMC,194103.000,A,3748.1871,N,12217.6746,W,0.64,336.08,170714,,,D*7C
$GPVTG,336.08,T,,M,0.64,N,1.2,K,D*07
$GPGGA,194104.000,3748.1874,N,12217.6750,W,2,04,2.3,-2.7,M,-25.1,M,10.8,0000*54
$GPGSA,A,3,04,28,17,26,,,,,,,,,4.5,2.3,3.9*34
$GPRMC,194104.000,A,3748.1874,N,12217.6750,W,0.19,227.51,170714,,,D*7E
$GPVTG,227.51,T,,M,0.19,N,0.3,K,D*00
$GPGGA,194105.000,3748.1877,N,12217.6759,W,2,03,3.0,-4.0,M,-25.1,M,11.8,0000*5A
$GPGSA,A,2,04,17,26,,,,,,,,,,3.2,3.0,1.0*36
$GPRMC,194105.000,A,3748.1877,N,12217.6759,W,1.49,294.74,170714,,,D*7E
$GPVTG,294.74,T,,M,1.49,N,2.8,K,D*02
$GPGGA,194106.000,3748.1885,N,12217.6766,W,2,03,1.7,-4.6,M,-25.1,M,12.8,0000*58
$GPGSA,A,2,04,28,26,,,,,,,,,,2.0,1.7,1.0*3C
$GPRMC,194106.000,A,3748.1885,N,12217.6766,W,0.97,330.00,170714,,,D*72
$GPVTG,330.00,T,,M,0.97,N,1.8,K,D*0F
$GPGGA,194107.000,3748.1886,N,12217.6765,W,2,05,2.2,-1.3,M,-25.1,M,13.8,0000*58
$GPGSA,A,3,04,28,08,17,26,,,,,,,,4.3,2.2,3.7*35
$GPGSV,3,1,12,17,83,143,25,22,74,001,,28,50,049,18,26,43,232,28*77
$GPGSV,3,2,12,09,43,130,27,04,26,141,30,08,22,124,26,01,21,059,*70
$GPGSV,3,3,12,24,12,313,,06,10,167,15,11,09,042,20,07,05,131,*71
$GPRMC,194107.000,A,3748.1886,N,12217.6765,W,1.13,4.99,170714,,,D*7A
$GPVTG,4.99,T,,M,1.13,N,2.1,K,D*0C
$GPGGA,194108.000,3748.1897,N,12217.6762,W,2,05,2.2,0.0,M,-25.1,M,14.8,0000*78
$GPGSA,A,3,04,28,08,17,26,,,,,,,,4.3,2.2,3.7*35
$GPRMC,194108.000,A,3748.1897,N,12217.6762,W,1.45,7.85,170714,,,D*7F
$GPVTG,7.85,T,,M,1.45,N,2.7,K,D*07
$GPGGA,194109.000,3748.1900,N,12217.6757,W,2,05,2.2,1.6,M,-25.1,M,15.8,0000*76
$GPGSA,A,3,04,28,08,17,26,,,,,,,,4.3,2.2,3.7*35
$GPRMC,194109.000,A,3748.1900,N,12217.6757,W,0.97,5.77,170714,,,D*76
$GPVTG,5.77,T,,M,0.97,N,1.8,K,D*0A
$GPGGA,194110.000,3748.1897,N,12217.6751,W,2,05,2.2,3.3,M,-25.1,M,16.8,0000*73
$GPGSA,A,3,04,28,08,17,26,,,,,,,,4.3,2.2,3.7*35
$GPRMC,194110.000,A,3748.1897,N,12217.6751,W,1.11,26.55,170714,,,D*49
$GPVTG,26.55,T,,M,1.11,N,2.1,K,D*3E
$GPGGA,194111.000,3748.1902,N,12217.6747,W,2,05,2.2,3.9,M,-25.1,M,17.8,0000*73
$GPGSA,A,3,04,28,08,17,26,,,,,,,,4.3,2.2,3.7*35
$GPRMC,194111.000,A,3748.1902,N,12217.6747,W,1.64,9.94,170714,,,D*70
$GPVTG,9.94,T,,M,1.64,N,3.0,K,D*0C
$GPGGA,194112.000,3748.1897,N,12217.6738,W,1,05,2.2,6.0,M,-25.1,M,,0000*6A
$GPGSA,A,3,04,28,08,17,26,,,,,,,,4.3,2.2,3.7*35
$GPGSV,3,1,12,17,83,143,24,22,74,001,,28,50,049,17,26,43,232,19*7B
$GPGSV,3,2,12,09,43,130,24,04,26,141,18,08,22,124,22,01,21,059,*7D
$GPGSV,3,3,12,24,12,313,,06,10,167,12,11,09,042,19,07,05,131,*7C
$GPRMC,194112.000,A,3748.1897,N,12217.6738,W,1.34,16.79,170714,,,A*4B
$GPVTG,16.79,T,,M,1.34,N,2.5,K,A*35
$GPGGA,194113.000,3748.1895,N,12217.6744,W,1,05,2.2,4.4,M,-25.1,M,,0000*64
$GPGSA,A,3,04,28,08,17,26,,,,,,,,4.3,2.2,3.7*35
$GPRMC,194113.000,A,3748.1895,N,12217.6744,W,1.28,28.64,170714,,,A*4F
$GPVTG,28.64,T,,M,1.28,N,2.4,K,A*38
$GPGGA,194114.000,3748.1895,N,12217.6746,W,1,05,2.2,2.5,M,-25.1,M,,0000*66
$GPGSA,A,3,04,28,08,17,26,,,,,,,,4.3,2.2,3.7*35
$GPRMC,194114.000,A,3748.1895,N,12217.6746,W,1.44,5.65,170714,,,A*7E
$GPVTG,5.65,T,,M,1.44,N,2.7,K,A*0F
$GPGGA,194115.000,3748.1890,N,12217.6738,W,1,05,2.2,3.0,M,-25.1,M,,0000*6F
$GPGSA,A,3,04,28,08,17,26,,,,,,,,4.3,2.2,3.7*35
$GPRMC,194115.000,A,3748.1890,N,12217.6738,W,1.55,359.52,170714,,,A*7D
$GPVTG,359.52,T,,M,1.55,N,2.9,K,A*0F
$GPGGA,194116.000,3748.1886,N,12217.6741,W,1,04,2.5,4.2,M,-25.1,M,,0000*66
$GPGSA,A,3,28,08,17,26,,,,,,,,,4.5,2.5,3.7*30
$GPRMC,194116.000,A,3748.1886,N,12217.6741,W,0.85,9.82,170714,,,A*70
$GPVTG,9.82,T,,M,0.85,N,1.6,K,A*04
$GPGGA,194117.000,3748.1890,N,12217.6739,W,1,04,2.5,3.9,M,-25.1,M,,0000*63
$GPGSA,A,3,28,08,17,26,,,,,,,,,4.5,2.5,3.7*30
$GPGSV,3,1,12,17,83,143,25,22,74,001,,28,50,049,16,26,43,232,21*70
$GPGSV,3,2,12,09,43,130,20,04,26,141,,08,22,124,22,01,21,059,*70
$GPGSV,3,3,12,24,12,313,,06,10,167,,11,09,042,19,07,05,131,*7F
$GPRMC,194117.000,A,3748.1890,N,12217.6739,W,0.95,323.05,170714,,,A*7C
$GPGGA,194118.000,3748.1884,N,12217.6734,W,1,05,2.2,5.0,M,-25.1,M,,0000*6D
$GPGSA,A,3,04,28,08,17,26,,,,,,,,4.3,2.2,3.7*35
$GPRMC,194118.000,A,3748.1884,N,12217.6734,W,0.30,305.71,170714,,,A*73
$GPVTG,305.71,T,,M,0.30,N,0.6,K,A*08
$GPGGA,194119.000,3748.1872,N,12217.6726,W,1,05,2.2,4.6,M,-25.1,M,,0000*61
$GPGSA,A,3,04,28,08,17,26,,,,,,,,4.3,2.2,3.7*35
$GPRMC,194119.000,A,3748.1872,N,12217.6726,W,0.54,158.23,170714,,,A*77
$GPVTG,158.23,T,,M,0.54,N,1.0,K,A*00
$GPGGA,194120.000,3748.1864,N,12217.6719,W,1,05,2.2,4.8,M,-25.1,M,,0000*6E
$GPGSA,A,3,04,28,08,17,26,,,,,,,,4.3,2.2,3.7*35
$GPRMC,194120.000,A,3748.1864,N,12217.6719,W,0.22,181.35,170714,,,A*74
$GPVTG,181.35,T,,M,0.22,N,0.4,K,A*07
$GPGGA,194121.000,3748.1862,N,12217.6718,W,1,04,6.9,5.0,M,-25.1,M,,0000*6F
$GPGSA,A,3,04,08,17,26,,,,,,,,,9.8,6.9,6.9*3D
$GPRMC,194121.000,A,3748.1862,N,12217.6718,W,0.32,273.59,170714,,,A*77
$GPVTG,273.59,T,,M,0.32,N,0.6,K,A*00
$GPGGA,194122.000,3748.1861,N,12217.6719,W,1,04,6.9,5.1,M,-25.1,M,,0000*6F
$GPGSA,A,3,04,08,17,26,,,,,,,,,9.8,6.9,6.9*3D
$GPGSV,3,1,12,17,83,143,27,22,74,001,,28,50,049,17,26,43,232,35*76
$GPGSV,3,2,12,09,43,130,26,04,26,141,23,08,22,124,21,01,21,059,*74
$GPGSV,3,3,12,24,12,313,,06,10,167,,11,09,042,19,07,05,131,*7F
$GPRMC,194122.000,A,3748.1861,N,12217.6719,W,0.46,225.13,170714,,,A*78
$GPVTG,225.13,T,,M,0.46,N,0.9,K,A*01
$GPGGA,194123.000,3748.1856,N,12217.6726,W,1,05,2.2,6.8,M,-25.1,M,,0000*62
$GPGSA,A,3,04,28,08,17,26,,,,,,,,4.3,2.2,3.7*35
$GPRMC,194123.000,A,3748.1856,N,12217.6726,W,1.02,165.37,170714,,,A*71
$GPVTG,165.37,T,,M,1.02,N,1.9,K,A*00
$GPGGA,194124.000,3748.1864,N,12217.6735,W,1,04,2.5,4.8,M,-25.1,M,,0000*62
$GPGSA,A,3,28,08,17,26,,,,,,,,,4.5,2.5,3.7*30
$GPRMC,194124.000,A,3748.1864,N,12217.6735,W,0.19,81.34,170714,,,A*46
$GPVTG,81.34,T,,M,0.19,N,0.3,K,A*38
$GPGGA,194125.000,3748.1873,N,12217.6732,W,1,05,2.2,5.9,M,-25.1,M,,0000*64
$GPGSA,A,3,04,28,08,17,26,,,,,,,,4.3,2.2,3.7*35
$GPRMC,194125.000,A,3748.1873,N,12217.6732,W,1.21,55.67,170714,,,A*43
$GPVTG,55.67,T,,M,1.21,N,2.2,K,A*3E
$GPGGA,194126.000,3748.1872,N,12217.6724,W,1,05,2.2,7.2,M,-25.1,M,,0000*68
$GPGSA,A,3,04,28,08,17,26,,,,,,,,4.3,2.2,3.7*35
$GPRMC,194126.000,A,3748.1872,N,12217.6724,W,1.23,60.12,170714,,,A*40
$GPVTG,60.12,T,,M,1.23,N,2.3,K,A*39
$GPGGA,194127.000,3748.1873,N,12217.6723,W,1,05,2.2,8.1,M,-25.1,M,,0000*63
$GPGSA,A,3,04,28,08,17,26,,,,,,,,4.3,2.2,3.7*35
$GPGSV,3,1,12,17,83,143,27,22,74,001,,28,50,049,33,26,43,232,20*74
$GPGSV,3,2,12,09,43,130,31,04,26,141,28,08,22,124,31,01,21,059,*78
$GPGSV,3,3,12,24,12,313,24,06,10,167,21,11,09,042,33,07,05,131,*72
$GPRMC,194127.000,A,3748.1873,N,12217.6723,W,1.01,28.05,170714,,,A*4D
$GPVTG,28.05,T,,M,1.01,N,1.9,K,A*3A
$GPGGA,194128.000,3748.1874,N,12217.6718,W,1,05,2.2,8.7,M,-25.1,M,,0000*65
$GPGSA,A,3,04,28,08,17,26,,,,,,,,4.3,2.2,3.7*35
$GPRMC,194128.000,A,3748.1874,N,12217.6718,W,0.70,30.69,170714,,,A*49
$GPVTG,30.69,T,,M,0.70,N,1.3,K,A*34
$GPGGA,194129.000,3748.1873,N,12217.6710,W,1,05,2.2,9.7,M,-25.1,M,,0000*6A
$GPGSA,A,3,04,28,08,17,26,,,,,,,,4.3,2.2,3.7*35
$GPRMC,194129.000,A,3748.1873,N,12217.6710,W,1.61,75.12,170714,,,A*4B
$GPVTG,75.12,T,,M,1.61,N,3.0,K,A*39
$GPGGA,194130.000,3748.1873,N,12217.6701,W,1,05,2.2,10.6,M,-25.1,M,,0000*5B
$GPGSA,A,3,04,28,08,17,26,,,,,,,,4.3,2.2,3.7*35
$GPRMC,194130.000,A,3748.1873,N,12217.6701,W,1.58,66.21,170714,,,A*4B
$GPVTG,66.21,T,,M,1.58,N,2.9,K,A*39
$GPGGA,194131.000,3748.1871,N,12217.6689,W,1,05,2.2,11.9,M,-25.1,M,,0000*57
$GPGSA,A,3,04,28,08,17,26,,,,,,,,4.3,2.2,3.7*35
$GPRMC,194131.000,A,3748.1871,N,12217.6689,W,2.13,84.30,170714,,,A*49
$GPVTG,84.30,T,,M,2.13,N,3.9,K,A*38
$GPGGA,194132.000,3748.1870,N,12217.6674,W,1,05,2.2,13.4,M,-25.1,M,,0000*58
$GPGSA,A,3,04,28,08,17,26,,,,,,,,4.3,2.2,3.7*35
$GPGSV,3,1,12,17,83,143,27,22,74,001,,28,50,049,35,26,43,232,20*72
$GPGSV,3,2,12,09,43,130,32,04,26,141,29,08,22,124,29,01,21,059,34*74
$GPGSV,3,3,12,24,12,313,25,06,10,167,21,11,09,042,24,07,05,131,*75
$GPRMC,194132.000,A,3748.1870,N,12217.6674,W,1.81,86.13,170714,,,A*42
$GPGGA,194133.000,3748.1867,N,12217.6668,W,1,05,2.2,13.3,M,-25.1,M,,0000*55
$GPGSA,A,3,04,28,08,17,26,,,,,,,,4.3,2.2,3.7*35
$GPRMC,194133.000,A,3748.1867,N,12217.6668,W,1.66,116.35,170714,,,A*7D
$GPVTG,116.35,T,,M,1.66,N,3.1,K,A*0E
$GPGGA,194134.000,3748.1863,N,12217.6665,W,1,05,2.2,12.8,M,-25.1,M,,0000*51
$GPGSA,A,3,04,28,08,17,26,,,,,,,,4.3,2.2,3.7*35
$GPRMC,194134.000,A,3748.1863,N,12217.6665,W,0.86,112.90,170714,,,A*77
$GPVTG,112.90,T,,M,0.86,N,1.6,K,A*0F
$GPGGA,194135.000,3748.1858,N,12217.6666,W,1,05,2.2,13.3,M,-25.1,M,,0000*51
$GPGSA,A,3,04,28,08,17,26,,,,,,,,4.3,2.2,3.7*35
$GPRMC,194135.000,A,3748.1858,N,12217.6666,W,1.12,125.91,170714,,,A*74
$GPVTG,125.91,T,,M,1.12,N,2.1,K,A*02
$GPGGA,194136.000,3748.1853,N,12217.6654,W,1,05,2.2,15.1,M,-25.1,M,,0000*5C
$GPGSA,A,3,04,28,08,17,26,,,,,,,,4.3,2.2,3.7*35
$GPRMC,194136.000,A,3748.1853,N,12217.6654,W,1.88,128.09,170714,,,A*72
$GPVTG,128.09,T,,M,1.88,N,3.5,K,A*08
$GPGGA,194137.000,3748.1854,N,12217.6654,W,1,05,2.2,13.4,M,-25.1,M,,0000*59
$GPGSA,A,3,04,28,08,17,26,,,,,,,,4.3,2.2,3.7*35
$GPGSV,3,1,12,17,83,143,27,22,74,001,,28,50,049,33,26,43,232,24*70
$GPGSV,3,2,12,09,43,130,35,04,26,141,34,08,22,124,36,01,21,059,37*72
$GPGSV,3,3,12,24,12,313,24,06,10,167,28,11,09,042,34,07,05,131,*7C
$GPRMC,194137.000,A,3748.1854,N,12217.6654,W,1.19,143.03,170714,,,A*7B
$GPVTG,143.03,T,,M,1.19,N,2.2,K,A*01
$GPGGA,194138.000,3748.1852,N,12217.6658,W,1,05,2.2,12.5,M,-25.1,M,,0000*5C
$GPGSA,A,3,04,28,08,17,26,,,,,,,,4.3,2.2,3.7*35
$GPRMC,194138.000,A,3748.1852,N,12217.6658,W,1.58,165.09,170714,,,A*75
$GPVTG,165.09,T,,M,1.58,N,2.9,K,A*01
$GPGGA,194139.000,3748.1843,N,12217.6661,W,1,05,2.2,13.4,M,-25.1,M,,0000*57
$GPGSA,A,3,04,28,08,17,26,,,,,,,,4.3,2.2,3.7*35
$GPRMC,194139.000,A,3748.1843,N,12217.6661,W,2.03,196.03,170714,,,A*75
$GPVTG,196.03,T,,M,2.03,N,3.8,K,A*0A
$GPGGA,194140.000,3748.1835,N,12217.6664,W,1,05,2.2,14.5,M,-25.1,M,,0000*5B
$GPGSA,A,3,04,28,08,17,26,,,,,,,,4.3,2.2,3.7*35
$GPRMC,194140.000,A,3748.1835,N,12217.6664,W,1.66,195.02,170714,,,A*7D
$GPVTG,195.02,T,,M,1.66,N,3.1,K,A*01
$GPGGA,194141.000,3748.1829,N,12217.6667,W,1,05,2.2,15.1,M,-25.1,M,,0000*51
$GPGSA,A,3,04,28,08,17,26,,,,,,,,4.3,2.2,3.7*35
$GPRMC,194141.000,A,3748.1829,N,12217.6667,W,1.53,200.68,170714,,,A*77
$GPVTG,200.68,T,,M,1.53,N,2.8,K,A*0C
$GPGGA,194142.000,3748.1824,N,12217.6669,W,1,05,2.2,15.3,M,-25.1,M,,0000*53
$GPGSA,A,3,04,28,08,17,26,,,,,,,,4.3,2.2,3.7*35
$GPGSV,3,1,12,17,83,143,28,22,74,001,,28,50,049,24,26,43,232,35*79
$GPGSV,3,2,12,09,43,130,37,04,26,141,34,08,22,124,32,01,21,059,24*76
$GPGSV,3,3,12,24,12,313,24,06,10,167,34,11,09,042,28,07,05,131,*7C
$GPRMC,194142.000,A,3748.1824,N,12217.6669,W,2.03,189.47,170714,,,A*7E
$GPVTG,189.47,T,,M,2.03,N,3.8,K,A*04
$GPGGA,194143.000,3748.1816,N,12217.6672,W,2,05,2.2,15.9,M,-25.1,M,1.8,0000*77
$GPGSA,A,3,04,28,08,17,26,,,,,,,,4.3,2.2,3.7*35
$GPRMC,194143.000,A,3748.1816,N,12217.6672,W,1.64,198.03,170714,,,D*73
$GPVTG,198.03,T,,M,1.64,N,3.0,K,D*0B
$GPGGA,194144.000,3748.1804,N,12217.6675,W,2,05,2.2,16.7,M,-25.1,M,2.8,0000*7A
$GPGSA,A,3,04,28,08,17,26,,,,,,,,4.3,2.2,3.7*35
$GPRMC,194144.000,A,3748.1804,N,12217.6675,W,2.00,193.28,170714,,,D*73
$GPVTG,193.28,T,,M,2.00,N,3.7,K,D*0F
$GPGGA,194145.000,3748.1801,N,12217.6676,W,2,05,2.2,16.4,M,-25.1,M,3.8,0000*7F
$GPGSA,A,3,04,28,08,17,26,,,,,,,,4.3,2.2,3.7*35
$GPRMC,194145.000,A,3748.1801,N,12217.6676,W,1.75,183.19,170714,,,D*76
$GPVTG,183.19,T,,M,1.75,N,3.2,K,D*08
$GPGGA,194146.000,3748.1798,N,12217.6676,W,2,05,2.2,15.8,M,-25.1,M,4.8,0000*7B
$GPGSA,A,3,04,28,08,17,26,,,,,,,,4.3,2.2,3.7*35
$GPRMC,194146.000,A,3748.1798,N,12217.6676,W,1.55,194.18,170714,,,D*7F
$GPVTG,194.18,T,,M,1.55,N,2.9,K,D*07
$GPGGA,194147.000,3748.1785,N,12217.6679,W,2,05,2.2,17.4,M,-25.1,M,1.8,0000*72
$GPGSA,A,3,04,28,08,17,26,,,,,,,,4.3,2.2,3.7*35
$GPGSV,3,1,12,17,83,143,29,22,74,001,,28,50,049,23,26,43,232,35*7F
$GPGSV,3,2,12,09,43,130,29,04,26,141,26,08,22,124,27,01,21,059,23*79
$GPGSV,3,3,12,24,12,313,22,06,10,167,35,11,09,042,23,07,05,131,*70
$GPVTG,188.78,T,,M,2.14,N,4.0,K,D*05
$GPGGA,194148.000,3748.1781,N,12217.6682,W,2,05,2.2,17.5,M,-25.1,M,1.8,0000*7C
$GPGSA,A,3,04,28,08,17,26,,,,,,,,4.3,2.2,3.7*35
$GPRMC,194148.000,A,3748.1781,N,12217.6682,W,1.10,173.53,170714,,,D*75
$GPVTG,173.53,T,,M,1.10,N,2.0,K,D*09
$GPGGA,194149.000,3748.1786,N,12217.6681,W,2,05,2.2,15.7,M,-25.1,M,1.8,0000*79
$GPGSA,A,3,04,28,08,17,26,,,,,,,,4.3,2.2,3.7*35
$GPRMC,194149.000,A,3748.1786,N,12217.6681,W,0.32,93.22,170714,,,D*48
$GPVTG,93.22,T,,M,0.32,N,0.6,K,D*35
$GPGGA,194150.000,3748.1792,N,12217.6683,W,2,05,2.2,14.4,M,-25.1,M,1.8,0000*74
$GPGSA,A,3,04,28,08,17,26,,,,,,,,4.3,2.2,3.7*35
$GPRMC,194150.000,A,3748.1792,N,12217.6683,W,0.34,133.80,170714,,,D*72
$GPVTG,133.80,T,,M,0.34,N,0.6,K,D*00
$GPGGA,194151.000,3748.1789,N,12217.6683,W,2,05,2.2,15.6,M,-25.1,M,2.8,0000*7F
$GPGSA,A,3,04,28,08,17,26,,,,,,,,4.3,2.2,3.7*35
$GPRMC,194151.000,A,3748.1789,N,12217.6683,W,0.44,145.26,170714,,,D*73
$GPVTG,145.26,T,,M,0.44,N,0.8,K,D*04
$GPGGA,194152.000,3748.1779,N,12217.6681,W,2,05,2.2,17.5,M,-25.1,M,3.8,0000*71
$GPGSA,A,3,04,28,08,17,26,,,,,,,,4.3,2.2,3.7*35
$GPGSV,3,1,12,17,83,143,28,22,74,001,,28,50,049,21,26,43,232,36*7F
$GPGSV,3,2,12,09,43,130,23,04,26,141,19,08,22,124,25,01,21,059,24*7A
$GPGSV,3,3,12,24,12,313,28,06,10,167,24,11,09,042,28,07,05,131,*71
$GPRMC,194152.000,A,3748.1779,N,12217.6681,W,1.65,173.35,170714,,,D*78
$GPVTG,173.35,T,,M,1.65,N,3.0,K,D*0A
$GPGGA,194153.000,3748.1762,N,12217.6675,W,2,05,2.2,20.3,M,-25.1,M,1.8,0000*71
$GPGSA,A,3,04,28,08,17,26,,,,,,,,4.3,2.2,3.7*35
$GPRMC,194153.000,A,3748.1762,N,12217.6675,W,1.84,161.30,170714,,,D*71
$GPVTG,161.30,T,,M,1.84,N,3.4,K,D*07
$GPGGA,194154.000,3748.1760,N,12217.6671,W,2,05,2.2,21.4,M,-25.1,M,1.8,0000*76
$GPGSA,A,3,04,28,08,17,26,,,,,,,,4.3,2.2,3.7*35
$GPRMC,194154.000,A,3748.1760,N,12217.6671,W,1.31,149.64,170714,,,D*75
$GPVTG,149.64,T,,M,1.31,N,2.4,K,D*03
$GPGGA,194155.000,3748.1753,N,12217.6671,W,2,05,2.2,23.8,M,-25.1,M,1.8,0000*79
$GPGSA,A,3,04,28,08,17,26,,,,,,,,4.3,2.2,3.7*35
$GPRMC,194155.000,A,3748.1753,N,12217.6671,W,0.96,156.17,170714,,,D*72
$GPVTG,156.17,T,,M,0.96,N,1.8,K,D*0A
$GPGGA,194156.000,3748.1750,N,12217.6671,W,2,05,2.2,25.2,M,-25.1,M,2.8,0000*76
$GPGSA,A,3,04,28,08,17,26,,,,,,,,4.3,2.2,3.7*35
$GPRMC,194156.000,A,3748.1750,N,12217.6671,W,0.32,158.57,170714,,,D*76
$GPVTG,158.57,T,,M,0.32,N,0.6,K,D*01
$GPGGA,194157.000,3748.1754,N,12217.6673,W,2,05,2.2,24.8,M,-25.1,M,3.8,0000*7B
$GPGSA,A,3,04,28,08,17,26,,,,,,,,4.3,2.2,3.7*35
$GPGSV,3,1,12,17,83,143,28,22,74,001,,28,50,049,21,26,43,232,36*7F
$GPGSV,3,2,12,09,43,130,29,04,26,141,26,08,22,124,28,01,21,059,17*71
$GPGSV,3,3,12,24,12,313,27,06,10,167,15,11,09,042,18,07,05,131,*7F
$GPRMC,194157.000,A,3748.1754,N,12217.6673,W,0.20,88.51,170714,,,D*48
$GPVTG,88.51,T,,M,0.20,N,0.4,K,D*3A
$GPGGA,194158.000,3748.1760,N,12217.6676,W,2,05,2.2,24.2,M,-25.1,M,4.8,0000*7B
$GPGSA,A,3,04,28,08,17,26,,,,,,,,4.3,2.2,3.7*35
$GPRMC,194158.000,A,3748.1760,N,12217.6676,W,0.32,164.92,170714,,,D*7A
$GPVTG,164.92,T,,M,0.32,N,0.6,K,D*07
$GPGGA,194159.000,3748.1765,N,12217.6678,W,2,05,2.2,23.3,M,-25.1,M,1.8,0000*72
$GPGSA,A,3,04,28,08,17,26,,,,,,,,4.3,2.2,3.7*35
$GPRMC,194159.000,A,3748.1765,N,12217.6678,W,0.66,174.96,170714,,,D*74
$GPVTG,174.96,T,,M,0.66,N,1.2,K,D*06
$GPGGA,194200.000,3748.1768,N,12217.6679,W,2,05,2.2,21.9,M,-25.1,M,1.8,0000*79
$GPGSA,A,3,04,28,08,17,26,,,,,,,,4.3,2.2,3.7*35
$GPRMC,194200.000,A,3748.1768,N,12217.6679,W,0.59,171.87,170714,,,D*7E
$GPVTG,171.87,T,,M,0.59,N,1.1,K,D*0C
$GPGGA,194201.000,3748.1772,N,12217.6681,W,2,05,2.2,21.2,M,-25.1,M,1.8,0000*7F
$GPGSA,A,3,04,28,08,17,26,,,,,,,,4.3,2.2,3.7*35
$GPRMC,194201.000,A,3748.1772,N,12217.6681,W,0.59,11.60,170714,,,D*4D
$GPVTG,11.60,T,,M,0.59,N,1.1,K,D*32
$GPGGA,194202.000,3748.1770,N,12217.6684,W,2,05,2.2,20.5,M,-25.1,M,1.8,0000*7D
$GPGSA,A,3,04,28,08,17,26,,,,,,,,4.3,2.2,3.7*35
$GPGSV,3,1,12,17,83,143,25,22,74,001,,28,50,049,22,26,43,232,36*71
$GPGSV,3,2,12,09,43,130,24,04,26,141,28,08,22,124,25,01,21,059,22*79
$GPGSV,3,3,12,24,12,313,23,06,10,167,18,11,09,042,28,07,05,131,*75
$GPVTG,7.02,T,,M,0.57,N,1.0,K,D*0E
$GPGGA,194203.000,3748.1775,N,12217.6686,W,2,05,2.2,20.7,M,-25.1,M,1.8,0000*79
$GPGSA,A,3,04,28,08,17,26,,,,,,,,4.3,2.2,3.7*35
$GPRMC,194203.000,A,3748.1775,N,12217.6686,W,0.12,322.70,170714,,,D*72
$GPVTG,322.70,T,,M,0.12,N,0.2,K,D*0D
$GPGGA,194204.000,3748.1788,N,12217.6688,W,2,05,2.2,17.7,M,-25.1,M,2.8,0000*75
$GPGSA,A,3,04,28,08,17,26,,,,,,,,4.3,2.2,3.7*35
$GPRMC,194204.000,A,3748.1788,N,12217.6688,W,0.33,341.64,170714,,,D*7A
$GPVTG,341.64,T,,M,0.33,N,0.6,K,D*0A
$GPGGA,194205.000,3748.1796,N,12217.6691,W,2,05,2.2,15.9,M,-25.1,M,3.8,0000*7E
$GPGSA,A,3,04,28,08,17,26,,,,,,,,4.3,2.2,3.7*35
$GPRMC,194205.000,A,3748.1796,N,12217.6691,W,0.37,336.34,170714,,,D*7D
$GPVTG,336.34,T,,M,0.37,N,0.7,K,D*0A
$GPGGA,194206.000,3748.1806,N,12217.6692,W,2,05,2.2,15.7,M,-25.1,M,1.8,0000*74
$GPGSA,A,3,04,28,08,17,26,,,,,,,,4.3,2.2,3.7*35
$GPRMC,194206.000,A,3748.1806,N,12217.6692,W,0.81,13.35,170714,,,D*43
$GPVTG,13.35,T,,M,0.81,N,1.5,K,D*31
$GPGGA,194207.000,3748.1818,N,12217.6692,W,2,05,2.2,14.0,M,-25.1,M,1.8,0000*7C
$GPGSA,A,3,04,28,08,17,26,,,,,,,,4.3,2.2,3.7*35
$GPGSV,3,1,12,17,83,143,27,22,74,001,,28,50,049,25,26,43,232,36*74
$GPGSV,3,2,12,09,43,130,34,04,26,141,28,08,22,124,25,01,21,059,23*79
$GPGSV,3,3,12,24,12,313,19,06,10,167,39,11,09,042,25,07,05,131,*72
$GPRMC,194207.000,A,3748.1818,N,12217.6692,W,0.52,29.78,170714,,,D*43
$GPVTG,29.78,T,,M,0.52,N,1.0,K,D*3A
$GPGGA,194208.000,3748.1823,N,12217.6690,W,2,05,2.2,12.5,M,-25.1,M,2.8,0000*79
$GPGSA,A,3,04,28,08,17,26,,,,,,,,4.3,2.2,3.7*35
$GPRMC,194208.000,A,3748.1823,N,12217.6690,W,0.52,84.18,170714,,,D*47
$GPVTG,84.18,T,,M,0.52,N,1.0,K,D*3B
$GPGGA,194209.000,3748.1817,N,12217.6690,W,2,05,2.2,12.3,M,-25.1,M,1.8,0000*7A
$GPGSA,A,3,04,28,08,17,26,,,,,,,,4.3,2.2,3.7*35
$GPRMC,194209.000,A,3748.1817,N,12217.6690,W,0.65,219.69,170714,,,D*75
$GPVTG,219.69,T,,M,0.65,N,1.2,K,D*0D
$GPGGA,194210.000,3748.1814,N,12217.6691,W,2,05,2.2,11.9,M,-25.1,M,2.8,0000*7A
$GPGSA,A,3,04,28,08,17,26,,,,,,,,4.3,2.2,3.7*35
$GPRMC,194210.000,A,3748.1814,N,12217.6691,W,1.07,213.89,170714,,,D*7E
$GPVTG,213.89,T,,M,1.07,N,2.0,K,D*0D
$GPGGA,194211.000,3748.1818,N,12217.6690,W,2,05,2.2,11.3,M,-25.1,M,0.8,0000*7E
$GPGSA,A,3,04,28,08,17,26,,,,,,,,4.3,2.2,3.7*35
$GPRMC,194211.000,A,3748.1818,N,12217.6690,W,0.84,196.57,170714,,,D*75
$GPVTG,196.57,T,,M,0.84,N,1.6,K,D*0F
$GPGGA,194212.000,3748.1822,N,12217.6691,W,2,05,2.2,8.6,M,-25.1,M,1.8,0000*49
$GPGSA,A,3,04,28,08,17,26,,,,,,,,4.3,2.2,3.7*35
$GPGSV,3,1,12,17,83,143,20,22,74,001,,28,50,049,20,26,43,232,34*74
$GPGSV,3,2,12,09,43,130,26,04,26,141,28,08,22,124,30,01,21,059,28*75
$GPGSV,3,3,12,24,12,313,,06,10,167,39,11,09,042,19,07,05,131,*75
$GPRMC,194212.000,A,3748.1822,N,12217.6691,W,0.36,283.36,170714,,,D*77
$GPVTG,283.36,T,,M,0.36,N,0.7,K,D*06
$GPGGA,194213.000,3748.1822,N,12217.6688,W,2,05,2.2,8.6,M,-25.1,M,1.8,0000*40
$GPGSA,A,3,04,28,08,17,26,,,,,,,,4.3,2.2,3.7*35
$GPRMC,194213.000,A,3748.1822,N,12217.6688,W,0.49,202.53,170714,,,D*7C
$GPVTG,202.53,T,,M,0.49,N,0.9,K,D*0A
$GPGGA,194214.000,3748.1820,N,12217.6688,W,2,05,2.2,8.1,M,-25.1,M,1.8,0000*42
$GPGSA,A,3,04,28,08,17,26,,,,,,,,4.3,2.2,3.7*35
$GPRMC,194214.000,A,3748.1820,N,12217.6688,W,0.49,209.41,170714,,,D*71
$GPVTG,209.41,T,,M,0.49,N,0.9,K,D*02
$GPGGA,194215.000,3748.1825,N,12217.6693,W,2,05,2.2,5.2,M,-25.1,M,2.8,0000*41
$GPGSA,A,3,04,28,08,17,26,,,,,,,,4.3,2.2,3.7*35
$GPRMC,194215.000,A,3748.1825,N,12217.6693,W,0.60,211.99,170714,,,D*78
$GPVTG,211.99,T,,M,0.60,N,1.1,K,D*0C
$GPGGA,194216.000,3748.1824,N,12217.6700,W,2,05,2.2,3.9,M,-25.1,M,3.8,0000*44
$GPGSA,A,3,04,28,08,17,26,,,,,,,,4.3,2.2,3.7*35
$GPRMC,194216.000,A,3748.1824,N,12217.6700,W,1.09,241.97,170714,,,D*74
$GPVTG,241.97,T,,M,1.09,N,2.0,K,D*0B
$GPGGA,194217.000,3748.1829,N,12217.6706,W,2,05,2.2,2.9,M,-25.1,M,1.8,0000*4D
$GPGSA,A,3,04,28,08,17,26,,,,,,,,4.3,2.2,3.7*35
$GPGSV,3,1,12,17,83,138,25,22,74,003,,28,49,050,19,26,43,231,34*76
$GPGSV,3,2,12,09,42,131,33,04,26,140,20,08,21,125,25,01,21,058,21*76
$GPGSV,3,3,12,24,12,313,,06,10,166,38,11,09,042,21,07,04,131,*7F
$GPVTG,324.83,T,,M,1.00,N,1.8,K,D*0E
$GPGGA,194218.000,3748.1826,N,12217.6707,W,2,05,2.2,5.1,M,-25.1,M,1.8,0000*43
$GPGSA,A,3,04,28,08,17,26,,,,,,,,4.3,2.2,3.7*35
$GPRMC,194218.000,A,3748.1826,N,12217.6707,W,0.44,310.59,170714,,,D*70
$GPVTG,310.59,T,,M,0.44,N,0.8,K,D*0E
$GPGGA,194219.000,3748.1819,N,12217.6707,W,2,05,2.2,7.3,M,-25.1,M,1.8,0000*4E
$GPGSA,A,3,04,28,08,17,26,,,,,,,,4.3,2.2,3.7*35
$GPRMC,194219.000,A,3748.1819,N,12217.6707,W,0.59,199.97,170714,,,D*70
$GPVTG,199.97,T,,M,0.59,N,1.1,K,D*0B
$GPGGA,194220.000,3748.1814,N,12217.6707,W,2,05,2.2,7.4,M,-25.1,M,2.8,0000*4D
$GPGSA,A,3,04,28,08,17,26,,,,,,,,4.3,2.2,3.7*35
$GPRMC,194220.000,A,3748.1814,N,12217.6707,W,0.28,20.85,170714,,,D*41
$GPVTG,20.85,T,,M,0.28,N,0.5,K,D*38
$GPGGA,194221.000,3748.1819,N,12217.6710,W,2,05,2.2,6.6,M,-25.1,M,3.8,0000*45
$GPGSA,A,3,04,28,08,17,26,,,,,,,,4.3,2.2,3.7*35
$GPRMC,194221.000,A,3748.1819,N,12217.6710,W,1.12,6.23,170714,,,D*7B
$GPVTG,6.23,T,,M,1.12,N,2.1,K,D*0E
$GPGGA,194222.000,3748.1816,N,12217.6706,W,2,05,2.2,7.6,M,-25.1,M,4.8,0000*48
$GPGSA,A,3,04,28,08,17,26,,,,,,,,4.3,2.2,3.7*35
$GPGSV,3,1,12,17,83,138,25,22,74,003,,28,49,050,25,26,43,231,26*7A
$GPGSV,3,2,12,09,42,131,28,04,26,140,30,08,21,125,25,01,21,058,23*7F
$GPGSV,3,3,12,24,12,313,,06,10,166,29,11,09,042,22,07,04,131,*7C
$GPRMC,194222.000,A,3748.1816,N,12217.6706,W,0.39,166.56,170714,,,D*7D
$GPVTG,166.56,T,,M,0.39,N,0.7,K,D*07
$GPGGA,194223.000,3748.1818,N,12217.6708,W,2,05,2.2,6.0,M,-25.1,M,5.8,0000*4F
$GPGSA,A,3,04,28,08,17,26,,,,,,,,4.3,2.2,3.7*35
$GPRMC,194223.000,A,3748.1818,N,12217.6708,W,0.71,212.28,170714,,,D*79
$GPVTG,212.28,T,,M,0.71,N,1.3,K,D*07
$GPGGA,194224.000,3748.1818,N,12217.6710,W,2,03,3.5,5.0,M,-25.1,M,6.8,0000*41
$GPGSA,A,2,08,17,26,,,,,,,,,,3.6,3.5,1.0*3B
$GPRMC,194224.000,A,3748.1818,N,12217.6710,W,0.57,262.47,170714,,,D*7D
$GPVTG,262.47,T,,M,0.57,N,1.1,K,N*05
$GPGGA,194225.000,3748.1815,N,12217.6713,W,2,04,6.8,3.7,M,-25.1,M,7.8,0000*41
$GPGSA,A,3,04,08,17,26,,,,,,,,,9.8,6.8,7.0*34
$GPRMC,194225.000,A,3748.1815,N,12217.6713,W,1.75,221.59,170714,,,D*7B
$GPVTG,221.59,T,,M,1.75,N,3.2,K,D*07
$GPGGA,194226.000,3748.1812,N,12217.6721,W,2,04,6.8,2.5,M,-25.1,M,8.8,0000*48
$GPGSA,A,3,04,08,17,26,,,,,,,,,9.8,6.8,7.0*34
$GPRMC,194226.000,A,3748.1812,N,12217.6721,W,2.02,204.12,170714,,,D*75
$GPVTG,204.12,T,,M,2.02,N,3.7,K,D*09
$GPGGA,194227.000,3748.1811,N,12217.6726,W,2,04,6.8,1.9,M,-25.1,M,9.8,0000*43
$GPGSA,A,3,04,08,17,26,,,,,,,,,9.8,6.8,7.0*34
$GPGSV,3,1,12,17,83,138,21,22,74,003,,28,49,050,,26,43,231,30*7E
$GPGSV,3,2,12,09,42,131,26,04,26,140,28,08,21,125,20,01,21,058,19*74
$GPGSV,3,3,12,24,12,313,,06,10,166,35,11,09,042,24,07,04,131,*77
$GPRMC,194227.000,A,3748.1811,N,12217.6726,W,1.41,211.52,170714,,,D*74
$GPVTG,211.52,T,,M,1.41,N,2.6,K,D*0D
$GPGGA,194228.000,3748.1806,N,12217.6717,W,2,04,6.8,3.0,M,-25.1,M,10.8,0000*7B
$GPGSA,A,3,04,08,17,26,,,,,,,,,9.8,6.8,7.0*34
$GPRMC,194228.000,A,3748.1806,N,12217.6717,W,1.00,197.04,170714,,,D*74
$GPVTG,197.04,T,,M,1.00,N,1.8,K,D*0B
$GPGGA,194229.000,3748.1810,N,12217.6715,W,2,04,6.8,3.8,M,-25.1,M,11.8,0000*76
$GPGSA,A,3,04,08,17,26,,,,,,,,,9.8,6.8,7.0*34
$GPRMC,194229.000,A,3748.1810,N,12217.6715,W,0.34,288.68,170714,,,D*71
$GPVTG,288.68,T,,M,0.34,N,0.6,K,D*05
$GPGGA,194230.000,3748.1814,N,12217.6714,W,2,04,6.8,4.1,M,-25.1,M,1.8,0000*44
$GPGSA,A,3,04,08,17,26,,,,,,,,,9.8,6.8,7.0*34
$GPRMC,194230.000,A,3748.1814,N,12217.6714,W,0.63,9.49,170714,,,D*76
$GPVTG,9.49,T,,M,0.63,N,1.2,K,D*0A
$GPGGA,194231.000,3748.1822,N,12217.6705,W,2,04,6.8,4.2,M,-25.1,M,1.8,0000*43
$GPGSA,A,3,04,08,17,26,,,,,,,,,9.8,6.8,7.0*34
$GPRMC,194231.000,A,3748.1822,N,12217.6705,W,1.20,37.43,170714,,,D*43
$GPVTG,37.43,T,,M,1.20,N,2.2,K,D*38
$GPGGA,194232.000,3748.1838,N,12217.6692,W,2,05,2.2,3.8,M,-25.1,M,2.8,0000*45
$GPGSA,A,3,04,28,08,17,26,,,,,,,,4.3,2.2,3.7*35
$GPGSV,3,1,12,17,83,138,26,22,74,003,,28,49,050,24,26,43,231,24*7A
$GPGSV,3,2,12,09,42,131,31,04,26,140,27,08,21,125,27,01,21,058,25*75
$GPGSV,3,3,12,24,12,313,,06,10,166,36,11,09,042,26,07,04,131,*76
$GPVTG,46.38,T,,M,1.01,N,1.9,K,D*39
$GPGGA,194233.000,3748.1843,N,12217.6687,W,2,05,2.2,3.2,M,-25.1,M,3.8,0000*47
$GPGSA,A,3,04,28,08,17,26,,,,,,,,4.3,2.2,3.7*35
$GPRMC,194233.000,A,3748.1843,N,12217.6687,W,0.15,140.98,170714,,,D*7D
$GPVTG,140.98,T,,M,0.15,N,0.3,K,D*0B
$GPGGA,194234.000,3748.1842,N,12217.6678,W,2,05,2.2,4.4,M,-25.1,M,4.8,0000*47
$GPGSA,A,3,04,28,08,17,26,,,,,,,,4.3,2.2,3.7*35
$GPRMC,194234.000,A,3748.1842,N,12217.6678,W,0.56,169.38,170714,,,D*7D
$GPVTG,169.38,T,,M,0.56,N,1.0,K,D*0F
$GPGGA,194235.000,3748.1841,N,12217.6678,W,2,05,2.2,4.0,M,-25.1,M,5.8,0000*40
$GPGSA,A,3,04,28,08,17,26,,,,,,,,4.3,2.2,3.7*35
$GPRMC,194235.000,A,3748.1841,N,12217.6678,W,1.21,188.52,170714,,,D*7D
$GPVTG,188.52,T,,M,1.21,N,2.2,K,D*0C
$GPGGA,194236.000,3748.1823,N,12217.6681,W,2,05,2.2,7.5,M,-25.1,M,6.8,0000*44
$GPGSA,A,3,04,28,08,17,26,,,,,,,,4.3,2.2,3.7*35
$GPRMC,194236.000,A,3748.1823,N,12217.6681,W,1.55,202.06,170714,,,D*7F
$GPVTG,202.06,T,,M,1.55,N,2.9,K,D*04
$GPGGA,194237.000,3748.1825,N,12217.6686,W,2,05,2.2,5.8,M,-25.1,M,7.8,0000*4A
$GPGSA,A,3,04,28,08,17,26,,,,,,,,4.3,2.2,3.7*35
$GPGSV,3,1,12,17,83,138,25,22,74,003,,28,49,050,27,26,43,231,26*78
$GPGSV,3,2,12,09,42,131,31,04,26,140,33,08,21,125,33,01,21,058,32*73
$GPGSV,3,3,12,24,12,313,,06,10,166,35,11,09,042,24,07,04,131,*77
